{"version": 0.6, "generator": "Overpass API 0.7.60.2 e4cf9f7a", "osm3s": {"timestamp_osm_base": "2023-05-21T17:30:24Z", "timestamp_areas_base": "2023-05-21T16:11:20Z", "copyright": "The data included in this document is from www.openstreetmap.org. The data is made available under ODbL."}, "elements": [{"type": "node", "id": 20217109, "lat": 41.8891458, "lon": -87.6225168, "tags": {"amenity": "ferry_terminal", "ferry": "yes", "name": "Michigan Avenue Bridge Dock", "network": "Shoreline Water Taxi", "operator": "Shoreline Water Taxi", "public_transport": "station", "source": "PGS"}}, {"type": "node", "id": 20217237, "lat": 41.8878241, "lon": -87.631768, "tags": {"amenity": "ferry_terminal", "ferry": "yes", "name": "River North Water Taxi Terminal", "network": "Chicago Water Taxi", "operator": "Chicago Water Taxi", "public_transport": "stop_position", "source": "PGS"}}, {"type": "node", "id": 20217442, "lat": 41.8791638, "lon": -87.6377811, "tags": {"amenity": "ferry_terminal", "ferry": "yes", "name": "Willis Tower/Union Station Water Taxi Terminal", "network": "Shoreline Water Taxi", "public_transport": "stop_position", "ref": "Shoreline Water Taxi", "source": "PGS"}}, {"type": "node", "id": 27607031, "lat": 41.8674039, "lon": -87.626584, "tags": {"name": "Roosevelt", "network": "CTA", "operator": "Chicago Transit Authority", "operator:wikidata": "Q117309", "public_transport": "stop_position", "railway": "stop", "subway": "yes"}}, {"type": "node", "id": 27607230, "lat": 41.8042948, "lon": -87.7043619, "tags": {"name": "Kedzie", "network": "CTA", "public_transport": "stop_position", "railway": "stop", "subway": "yes"}}, {"type": "node", "id": 27607237, "lat": 41.7998339, "lon": -87.7244782, "tags": {"name": "Pulaski", "network": "CTA", "public_transport": "stop_position", "railway": "stop", "subway": "yes"}}, {"type": "node", "id": 27607246, "lat": 41.7866989, "lon": -87.7379376, "tags": {"name": "Midway", "network": "CTA", "operator": "Chicago Transit Authority", "operator:wikidata": "Q117309", "public_transport": "stop_position", "railway": "stop", "subway": "yes"}}, {"type": "node", "id": 27607248, "lat": 41.8046228, "lon": -87.6843783, "tags": {"name": "Western", "network": "CTA", "public_transport": "stop_position", "railway": "stop", "subway": "yes"}}, {"type": "node", "id": 34877681, "lat": 41.9610991, "lon": -87.7432228, "tags": {"name": "Montrose", "network": "CTA", "operator": "Chicago Transit Authority", "operator:wikidata": "Q117309", "public_transport": "stop_position", "railway": "stop", "subway": "yes"}}, {"type": "node", "id": 34877711, "lat": 41.9159812, "lon": -87.6870645, "tags": {"name": "Western", "network": "CTA", "operator": "Chicago Transit Authority", "operator:wikidata": "Q117309", "public_transport": "stop_position", "railway": "stop", "subway": "yes"}}, {"type": "node", "id": 250755792, "lat": 41.9133496, "lon": -87.6329675, "tags": {"bus": "yes", "name": "Clark & LaSalle", "network": "CTA", "operator": "Chicago Transit Authority", "public_transport": "stop_position", "ref": "1845"}}, {"type": "node", "id": 252643581, "lat": 42.0080864, "lon": -87.6659686, "tags": {"addr:city": "Chicago", "addr:housenumber": "1358", "addr:postcode": "60626", "addr:state": "IL", "addr:street": "West Morse Avenue", "addr:street:name": "Morse", "addr:street:prefix": "West", "addr:street:type": "Avenue", "name": "Morse", "network": "CTA", "operator": "Chicago Transit Authority", "platforms": "1", "public_transport": "station", "railway": "station", "station": "subway", "subway": "yes", "website": "http://www.transitchicago.com/travel_information/station.aspx?StopId=104", "wheelchair": "no", "wikidata": "Q3324437", "wikipedia": "en:Morse (CTA station)"}}, {"type": "node", "id": 252643632, "lat": 41.9538873, "lon": -87.654928, "tags": {"addr:city": "Chicago", "addr:housenumber": "3940", "addr:postcode": "60613", "addr:state": "IL", "addr:street": "North Sheridan Road", "addr:street:name": "Sheridan", "addr:street:prefix": "North", "addr:street:type": "Road", "chicago:building_id": "843356", "name": "Sheridan", "network": "CTA", "operator": "Chicago Transit Authority", "platforms": "2", "public_transport": "station", "railway": "station", "station": "subway", "subway": "yes", "wheelchair": "no", "wikidata": "Q3481922", "wikipedia": "en:Sheridan station (CTA)"}}, {"type": "node", "id": 252683058, "lat": 41.9475198, "lon": -87.6536271, "tags": {"addr:city": "Chicago", "addr:housenumber": "940", "addr:postcode": "60613", "addr:state": "IL", "addr:street": "West Addison Street", "chicago:building_id": "174133", "name": "Addison", "network": "CTA", "operator": "Chicago Transit Authority", "platforms": "1", "public_transport": "station", "railway": "station", "station": "subway", "subway": "yes", "website": "http://www.transitchicago.com/travel_information/station.aspx?StopId=17", "wheelchair": "yes", "wikidata": "Q265675", "wikipedia": "en:Addison (CTA Red Line station)"}}, {"type": "node", "id": 252683064, "lat": 41.9397964, "lon": -87.6533276, "tags": {"addr:city": "Chicago", "addr:housenumber": "945", "addr:postcode": "60657", "addr:state": "IL", "addr:street": "West Belmont Avenue", "name": "Belmont", "network": "CTA", "operator": "Chicago Transit Authority", "platforms": "2", "public_transport": "station", "railway": "station", "station": "subway", "subway": "yes", "wheelchair": "yes", "wikidata": "Q2895014", "wikipedia": "en:Belmont station (CTA North Side Main Line)"}}, {"type": "node", "id": 252683073, "lat": 41.9182415, "lon": -87.6526308, "tags": {"addr:city": "Chicago", "addr:housenumber": "944", "addr:postcode": "60614", "addr:state": "IL", "addr:street": "West Armitage Avenue", "gnis:feature_id": "1826015", "name": "Armitage", "network": "CTA", "operator": "Chicago Transit Authority", "platforms": "2", "public_transport": "station", "railway": "station", "station": "subway", "subway": "yes", "wheelchair": "yes", "wikidata": "Q2862279", "wikipedia": "en:Armitage station"}}, {"type": "node", "id": 252683107, "lat": 41.9438051, "lon": -87.6635877, "tags": {"name": "Southport", "network": "CTA", "operator": "Chicago Transit Authority", "operator:wikidata": "Q117309", "public_transport": "stop_position", "railway": "stop", "subway": "yes", "wheelchair": "yes"}}, {"type": "node", "id": 252683109, "lat": 41.9436888, "lon": -87.6708187, "tags": {"name": "Paulina", "network": "CTA", "operator": "Chicago Transit Authority", "operator:wikidata": "Q117309", "public_transport": "stop_position", "railway": "stop", "subway": "yes", "wheelchair": "yes"}}, {"type": "node", "id": 252683118, "lat": 41.9470516, "lon": -87.6747689, "tags": {"name": "Addison", "network": "CTA", "operator": "Chicago Transit Authority", "operator:wikidata": "Q117309", "public_transport": "stop_position", "railway": "stop", "subway": "yes"}}, {"type": "node", "id": 252683125, "lat": 41.9543527, "lon": -87.6749697, "tags": {"name": "Irving Park", "network": "CTA", "operator": "Chicago Transit Authority", "operator:wikidata": "Q117309", "public_transport": "stop_position", "railway": "stop", "subway": "yes"}}, {"type": "node", "id": 252683129, "lat": 41.9616741, "lon": -87.6751532, "tags": {"name": "Montrose", "network": "CTA", "operator": "Chicago Transit Authority", "operator:wikidata": "Q117309", "public_transport": "stop_position", "railway": "stop", "subway": "yes"}}, {"type": "node", "id": 252683138, "lat": 41.9663859, "lon": -87.6788409, "tags": {"name": "Damen", "network": "CTA", "operator": "Chicago Transit Authority", "operator:wikidata": "Q117309", "public_transport": "stop_position", "railway": "stop", "subway": "yes", "wheelchair": "yes"}}, {"type": "node", "id": 252683142, "lat": 41.9662349, "lon": -87.6884482, "tags": {"name": "Western", "network": "CTA", "operator": "Chicago Transit Authority", "operator:wikidata": "Q117309", "public_transport": "stop_position", "railway": "stop", "subway": "yes", "wheelchair": "yes"}}, {"type": "node", "id": 252683157, "lat": 41.9680905, "lon": -87.7131924, "tags": {"name": "Kimball", "network": "CTA", "operator": "Chicago Transit Authority", "operator:wikidata": "Q117309", "public_transport": "stop_position", "railway": "stop", "subway": "yes"}}, {"type": "node", "id": 256475054, "lat": 41.7814844, "lon": -87.6309757, "tags": {"name": "63rd", "network": "CTA", "operator": "Chicago Transit Authority", "operator:wikidata": "Q117309", "public_transport": "stop_position", "railway": "stop", "subway": "yes"}}, {"type": "node", "id": 256475078, "lat": 41.7683513, "lon": -87.6257568, "tags": {"name": "69th", "network": "CTA", "operator": "Chicago Transit Authority", "operator:wikidata": "Q117309", "public_transport": "stop_position", "railway": "stop", "subway": "yes"}}, {"type": "node", "id": 257381771, "lat": 41.8791728, "lon": -87.6395962, "tags": {"name": "Chicago Union Station", "network": "Metra", "public_transport": "stop_position", "railway": "stop", "railway:ref": "CHI", "train": "yes"}}, {"type": "node", "id": 257381840, "lat": 41.8790649, "lon": -87.6393973, "tags": {"name": "Chicago Union Station", "public_transport": "stop_position", "railway": "stop", "railway:ref": "CHI", "train": "yes"}}, {"type": "node", "id": 257952721, "lat": 41.8577339, "lon": -87.6177691, "tags": {"name": "18th Street", "network": "Metra", "public_transport": "stop_position", "railway": "stop", "ref:metra": "18TH-UP", "train": "yes"}}, {"type": "node", "id": 257952730, "lat": 41.8444267, "lon": -87.6134304, "tags": {"name": "27th Street", "network": "Metra", "public_transport": "stop_position", "railway": "stop", "ref:metra": "27TH-UP", "train": "yes"}}, {"type": "node", "id": 258023123, "lat": 41.8929104, "lon": -87.6106482, "tags": {"bus": "yes", "name": "Navy Pier Terminal", "network": "CTA", "operator": "Chicago Transit Authority", "public_transport": "stop_position", "ref": "18620"}}, {"type": "node", "id": 258026049, "lat": 41.8754875, "lon": -87.6496998, "tags": {"addr:city": "Chicago", "addr:housenumber": "430", "addr:postcode": "60607", "addr:state": "IL", "addr:street": "South Halsted Street", "name": "UIC-Halsted", "network": "CTA", "operator": "Chicago Transit Authority", "platforms": "1", "public_transport": "station", "railway": "station", "station": "subway", "subway": "yes", "wheelchair": "yes", "wikidata": "Q3547211", "wikipedia": "en:UIC\u2013Halsted station"}}, {"type": "node", "id": 258026055, "lat": 41.8758947, "lon": -87.6593253, "tags": {"addr:city": "Chicago", "addr:housenumber": "430", "addr:postcode": "60607", "addr:state": "IL", "addr:street": "South Racine Avenue", "addr:street:name": "Racine", "addr:street:prefix": "South", "addr:street:type": "Avenue", "chicago:building_id": "363198", "name": "Racine", "network": "CTA", "operator": "Chicago Transit Authority", "platforms": "1", "public_transport": "station", "railway": "station", "station": "subway", "subway": "yes", "wheelchair": "yes", "wikidata": "Q3416226", "wikipedia": "en:Racine station (CTA Blue Line)"}}, {"type": "node", "id": 258026066, "lat": 41.8755486, "lon": -87.689588, "tags": {"name": "Western", "network": "CTA", "operator": "Chicago Transit Authority", "operator:wikidata": "Q117309", "public_transport": "stop_position", "railway": "stop", "subway": "yes"}}, {"type": "node", "id": 258026083, "lat": 41.8738983, "lon": -87.7288568, "tags": {"name": "Pulaski", "network": "CTA", "operator": "Chicago Transit Authority", "operator:wikidata": "Q117309", "public_transport": "stop_position", "railway": "stop", "subway": "yes"}}, {"type": "node", "id": 258278032, "lat": 41.8756639, "lon": -87.673256, "tags": {"addr:city": "Chicago", "addr:housenumber": "430", "addr:postcode": "60612", "addr:state": "IL", "addr:street": "South Damen Avenue", "name": "Illinois Medical District", "network": "CTA", "old_name": "Medical Center", "operator": "Chicago Transit Authority", "platforms": "1", "public_transport": "station", "railway": "station", "station": "subway", "subway": "yes", "wheelchair": "yes", "wikidata": "Q3148729", "wikipedia": "en:Illinois Medical District station"}}, {"type": "node", "id": 258281897, "lat": 41.8755678, "lon": -87.6409722, "tags": {"addr:city": "Chicago", "addr:housenumber": "426", "addr:postcode": "60607", "addr:state": "IL", "addr:street": "South Clinton Street", "name": "Clinton", "network": "CTA", "operator": "Chicago Transit Authority", "platforms": "1", "public_transport": "station", "railway": "station", "station": "subway", "subway": "yes", "wheelchair": "no", "wikidata": "Q2979347", "wikipedia": "en:Clinton station (CTA Blue Line)"}}, {"type": "node", "id": 258281908, "lat": 41.8913796, "lon": -87.6478466, "tags": {"addr:city": "Chicago", "addr:housenumber": "502", "addr:postcode": "60642", "addr:state": "IL", "addr:street": "North Milwaukee Avenue", "name": "Grand", "network": "CTA", "operator": "Chicago Transit Authority", "platforms": "1", "public_transport": "station", "railway": "station", "station": "subway", "subway": "yes", "wheelchair": "no", "wikidata": "Q3113491", "wikipedia": "en:Grand station (CTA Blue Line)"}}, {"type": "node", "id": 258284110, "lat": 41.9391414, "lon": -87.7125131, "tags": {"addr:city": "Chicago", "addr:housenumber": "3355", "addr:postcode": "60618", "addr:state": "IL", "addr:street": "West Belmont Avenue", "name": "Belmont", "network": "CTA", "operator": "Chicago Transit Authority", "platforms": "1", "public_transport": "station", "railway": "station", "station": "subway", "subway": "yes", "wheelchair": "no", "wikidata": "Q2895020", "wikipedia": "en:Belmont station (CTA Blue Line)"}}, {"type": "node", "id": 258284111, "lat": 41.9302678, "lon": -87.709328, "tags": {"addr:city": "Chicago", "addr:housenumber": "2620", "addr:postcode": "60647", "addr:state": "IL", "addr:street": "North Kedzie Avenue", "name": "Logan Square", "network": "CTA", "operator": "Chicago Transit Authority", "platforms": "1", "public_transport": "station", "railway": "station", "station": "subway", "subway": "yes", "wheelchair": "yes", "wikidata": "Q3257856", "wikipedia": "en:Logan Square station"}}, {"type": "node", "id": 258294724, "lat": 41.8738512, "lon": -87.6275824, "tags": {"addr:city": "Chicago", "addr:housenumber": "608", "addr:postcode": "60605", "addr:state": "IL", "addr:street": "South State Street", "name": "Harrison", "network": "CTA", "operator": "Chicago Transit Authority", "platforms": "1", "public_transport": "station", "railway": "station", "station": "subway", "subway": "yes", "wheelchair": "no", "wikidata": "Q3127748", "wikipedia": "en:Harrison station (CTA)"}}, {"type": "node", "id": 258296349, "lat": 41.8857506, "lon": -87.6278662, "tags": {"name": "State/Lake", "network": "CTA", "operator": "Chicago Transit Authority", "platforms": "2", "public_transport": "station", "railway": "station", "station": "subway", "subway": "yes", "wheelchair": "no", "wikidata": "Q3497286"}}, {"type": "node", "id": 258296742, "lat": 41.878227, "lon": -87.627698, "tags": {"addr:city": "Chicago", "addr:housenumber": "230", "addr:postcode": "60604", "addr:state": "IL", "addr:street": "South State Street", "name": "Jackson", "network": "CTA", "operator": "Chicago Transit Authority", "platforms": "1", "public_transport": "station", "railway": "station", "station": "subway", "subway": "yes", "wheelchair": "yes", "wikidata": "Q2670059", "wikipedia": "en:Jackson station (CTA Red Line)"}}, {"type": "node", "id": 258296743, "lat": 41.8807984, "lon": -87.6277409, "tags": {"addr:city": "Chicago", "addr:housenumber": "26", "addr:postcode": "60603", "addr:state": "IL", "addr:street": "South State Street", "layer": "-1", "level": "-1", "name": "Monroe", "network": "CTA", "operator": "Chicago Transit Authority", "platforms": "1", "public_transport": "station", "railway": "station", "station": "subway", "subway": "yes", "wheelchair": "no", "wikidata": "Q959400", "wikipedia": "en:Monroe station (CTA Red Line)"}}, {"type": "node", "id": 258940051, "lat": 41.8826344, "lon": -87.6338448, "tags": {"addr:city": "Chicago", "addr:housenumber": "100", "addr:postcode": "60606", "addr:state": "IL", "addr:street": "North Wells Street", "name": "Washington/Wells", "network": "CTA", "operator": "Chicago Transit Authority", "platforms": "2", "public_transport": "station", "railway": "station", "station": "subway", "subway": "yes", "wheelchair": "yes", "wikidata": "Q3566498", "wikipedia": "en:Washington/Wells station"}}, {"type": "node", "id": 258940052, "lat": 41.878862, "lon": -87.6337415, "tags": {"addr:city": "Chicago", "addr:housenumber": "220", "addr:postcode": "60606", "addr:state": "IL", "addr:street": "South Wells Street", "name": "Quincy", "network": "CTA", "old_name": "Quincy/Wells", "operator": "Chicago Transit Authority", "platforms": "2", "public_transport": "station", "railway": "station", "station": "subway", "subway": "yes", "wheelchair": "yes", "wikidata": "Q3414534", "wikipedia": "en:Quincy station (CTA)"}}, {"type": "node", "id": 258940056, "lat": 41.876854, "lon": -87.6317875, "tags": {"addr:city": "Chicago", "addr:housenumber": "121", "addr:postcode": "60605", "addr:state": "IL", "addr:street": "West Van Buren Street", "name": "LaSalle/Van Buren", "network": "CTA", "operator": "Chicago Transit Authority", "platforms": "2", "public_transport": "station", "railway": "station", "station": "subway", "subway": "yes", "wheelchair": "no", "wikidata": "Q3206263", "wikipedia": "en:LaSalle/Van Buren station"}}, {"type": "node", "id": 258940057, "lat": 41.8769288, "lon": -87.6286681, "tags": {"addr:city": "Chicago", "addr:housenumber": "1", "addr:postcode": "60605", "addr:state": "IL", "addr:street": "West Van Buren Street", "alt_name": "Library", "name": "Harold Washington Library-State/Van Buren", "network": "CTA", "old_name": "Library-State/Van Buren", "operator": "Chicago Transit Authority", "platforms": "2", "public_transport": "station", "railway": "station", "station": "subway", "subway": "yes", "wheelchair": "yes", "wikidata": "Q3127657", "wikipedia": "en:Harold Washington Library \u2013 State/Van Buren station"}}, {"type": "node", "id": 258940060, "lat": 41.8796269, "lon": -87.6261185, "tags": {"name": "Adams/Wabash", "network": "CTA", "operator": "Chicago Transit Authority", "platforms": "2", "public_transport": "station", "railway": "station", "station": "subway", "subway": "yes", "wheelchair": "no", "wikidata": "Q2311028"}}, {"type": "node", "id": 258940066, "lat": 41.8857568, "lon": -87.6310418, "tags": {"addr:city": "Chicago", "addr:housenumber": "100-124", "addr:postcode": "60601", "addr:state": "IL", "addr:street": "West Lake Street", "name": "Clark/Lake", "network": "CTA", "operator": "Chicago Transit Authority", "platforms": "2", "public_transport": "station", "railway": "station", "station": "subway", "subway": "yes", "wikidata": "Q601041", "wikipedia": "en:Clark/Lake station"}}, {"type": "node", "id": 258942193, "lat": 41.8857166, "lon": -87.6419195, "tags": {"addr:city": "Chicago", "addr:housenumber": "540", "addr:postcode": "60661", "addr:street": "West Lake Street", "name": "Clinton", "network": "CTA", "operator": "Chicago Transit Authority", "platforms": "2", "public_transport": "station", "railway": "station", "station": "subway", "subway": "yes", "wheelchair": "yes", "wikidata": "Q2979346", "wikipedia": "en:Clinton station (CTA Green and Pink Lines)"}}, {"type": "node", "id": 258942196, "lat": 41.8853413, "lon": -87.6662819, "tags": {"addr:city": "Chicago", "addr:housenumber": "1601", "addr:postcode": "60612", "addr:state": "IL", "addr:street": "West Lake Street", "name": "Ashland", "network": "CTA", "operator": "Chicago Transit Authority", "platforms": "2", "public_transport": "station", "railway": "station", "station": "subway", "subway": "yes", "wheelchair": "yes", "wikidata": "Q2866523", "wikipedia": "en:Ashland station (CTA Green and Pink Lines)"}}, {"type": "node", "id": 258944287, "lat": 41.8713894, "lon": -87.6696006, "tags": {"name": "Polk", "network": "CTA", "operator": "Chicago Transit Authority", "operator:wikidata": "Q117309", "public_transport": "stop_position", "railway": "stop", "subway": "yes", "train": "no"}}, {"type": "node", "id": 258944288, "lat": 41.8579583, "lon": -87.6692149, "tags": {"name": "18th", "network": "CTA", "operator": "Chicago Transit Authority", "operator:wikidata": "Q117309", "public_transport": "stop_position", "railway": "stop", "subway": "yes"}}, {"type": "node", "id": 258944298, "lat": 41.8545357, "lon": -87.6768018, "tags": {"name": "Damen", "network": "CTA", "operator": "Chicago Transit Authority", "operator:wikidata": "Q117309", "public_transport": "stop_position", "railway": "stop", "subway": "yes"}}, {"type": "node", "id": 258944299, "lat": 41.8544243, "lon": -87.6849056, "tags": {"name": "Western", "network": "CTA", "operator": "Chicago Transit Authority", "operator:wikidata": "Q117309", "public_transport": "stop_position", "railway": "stop", "subway": "yes"}}, {"type": "node", "id": 258944300, "lat": 41.8543425, "lon": -87.6947311, "tags": {"name": "California", "network": "CTA", "operator": "Chicago Transit Authority", "operator:wikidata": "Q117309", "public_transport": "stop_position", "railway": "stop", "subway": "yes"}}, {"type": "node", "id": 258944303, "lat": 41.8541965, "lon": -87.7057414, "tags": {"name": "Kedzie", "network": "CTA", "operator": "Chicago Transit Authority", "operator:wikidata": "Q117309", "public_transport": "stop_position", "railway": "stop", "subway": "yes"}}, {"type": "node", "id": 258944305, "lat": 41.85405, "lon": -87.7151395, "tags": {"name": "Central Park", "network": "CTA", "operator": "Chicago Transit Authority", "operator:wikidata": "Q117309", "public_transport": "stop_position", "railway": "stop", "subway": "yes"}}, {"type": "node", "id": 258944306, "lat": 41.8539231, "lon": -87.7241161, "tags": {"name": "Pulaski", "network": "CTA", "operator": "Chicago Transit Authority", "operator:wikidata": "Q117309", "public_transport": "stop_position", "railway": "stop", "subway": "yes"}}, {"type": "node", "id": 258945067, "lat": 41.8873895, "lon": -87.7655366, "tags": {"name": "Central", "network": "CTA", "operator": "Chicago Transit Authority", "operator:wikidata": "Q117309", "public_transport": "stop_position", "railway": "stop", "subway": "yes"}}, {"type": "node", "id": 258945068, "lat": 41.8872742, "lon": -87.7743361, "tags": {"name": "Austin", "network": "CTA", "operator": "Chicago Transit Authority", "operator:wikidata": "Q117309", "public_transport": "stop_position", "railway": "stop", "subway": "yes"}}, {"type": "node", "id": 258945081, "lat": 41.884216, "lon": -87.6966769, "tags": {"name": "California", "network": "CTA", "operator": "Chicago Transit Authority", "operator:wikidata": "Q117309", "public_transport": "stop_position", "railway": "stop", "subway": "yes"}}, {"type": "node", "id": 258945084, "lat": 41.8843305, "lon": -87.7062417, "tags": {"name": "Kedzie", "network": "CTA", "operator": "Chicago Transit Authority", "operator:wikidata": "Q117309", "public_transport": "stop_position", "railway": "stop", "subway": "yes"}}, {"type": "node", "id": 258945087, "lat": 41.8854662, "lon": -87.7264647, "tags": {"name": "Pulaski", "network": "CTA", "operator": "Chicago Transit Authority", "operator:wikidata": "Q117309", "public_transport": "stop_position", "railway": "stop", "subway": "yes"}}, {"type": "node", "id": 258945097, "lat": 41.8871327, "lon": -87.7548856, "tags": {"name": "Laramie", "network": "CTA", "operator": "Chicago Transit Authority", "operator:wikidata": "Q117309", "public_transport": "stop_position", "railway": "stop", "subway": "yes"}}, {"type": "node", "id": 258963130, "lat": 41.8091361, "lon": -87.6188816, "tags": {"name": "47th", "network": "CTA", "operator": "Chicago Transit Authority", "operator:wikidata": "Q117309", "public_transport": "stop_position", "railway": "stop", "subway": "yes"}}, {"type": "node", "id": 258963136, "lat": 41.8024076, "lon": -87.6185614, "tags": {"name": "51st", "network": "CTA", "operator": "Chicago Transit Authority", "operator:wikidata": "Q117309", "public_transport": "stop_position", "railway": "stop", "subway": "yes"}}, {"type": "node", "id": 259749423, "lat": 41.8312899, "lon": -87.6258603, "tags": {"addr:city": "Chicago", "addr:housenumber": "16", "addr:postcode": "60616", "addr:state": "IL", "addr:street": "East 35th Street", "colour": "green", "name": "35th-Bronzeville-IIT", "network": "CTA", "old_name": "Tech-35th", "operator": "Chicago Transit Authority", "platforms": "1", "public_transport": "station", "railway": "station", "station": "subway", "subway": "yes", "wheelchair": "yes", "wikidata": "Q2816282", "wikipedia": "en:35th\u2013Bronzeville\u2013IIT station"}}, {"type": "node", "id": 261113223, "lat": 41.8089015, "lon": -87.5914762, "tags": {"bus": "yes", "local_ref": "5033", "name": "Lake Park & 47th Street", "network": "CTA", "operator": "Chicago Transit Authority", "public_transport": "stop_position"}}, {"type": "node", "id": 261156770, "lat": 41.6858727, "lon": -87.6123978, "tags": {"bus": "yes", "local_ref": "18241", "name": "115th Street Metra Station", "network": "CTA", "operator": "Chicago Transit Authority", "public_transport": "stop_position"}}, {"type": "node", "id": 261162213, "lat": 41.8580012, "lon": -87.653384, "tags": {"bus": "yes", "local_ref": "6769", "name": "18th Street & Carpenter", "network": "CTA", "operator": "Chicago Transit Authority", "public_transport": "stop_position"}}, {"type": "node", "id": 261186864, "lat": 41.9951174, "lon": -87.8804766, "tags": {"name": "O'Hare Transfer", "network": "Metra", "public_transport": "stop_position", "railway": "stop", "ref:metra": "OHARE", "train": "yes"}}, {"type": "node", "id": 261199866, "lat": 41.8363381, "lon": -87.6462297, "tags": {"bus": "yes", "local_ref": "5908", "name": "Halsted & 32nd Street", "network": "CTA", "operator": "Chicago Transit Authority", "public_transport": "stop_position"}}, {"type": "node", "id": 261274176, "lat": 41.7406138, "lon": -87.7141186, "tags": {"name": "Ashburn", "network": "Metra", "operator": "Metra", "operator:wikidata": "Q1814208", "public_transport": "stop_position", "railway": "stop", "ref:metra": "ASHBURN", "train": "yes"}}, {"type": "node", "id": 261343174, "lat": 41.8016218, "lon": -87.6052756, "tags": {"bus": "yes", "local_ref": "9188", "name": "Payne & Cottage Grove", "network": "CTA", "operator": "Chicago Transit Authority", "public_transport": "stop_position"}}, {"type": "node", "id": 263826095, "lat": 41.984315, "lon": -87.8369765, "tags": {"name": "Cumberland", "network": "CTA", "operator": "Chicago Transit Authority", "operator:wikidata": "Q117309", "public_transport": "stop_position", "railway": "stop", "subway": "yes"}}, {"type": "node", "id": 266656859, "lat": 41.9703365, "lon": -87.7602828, "tags": {"name": "Jefferson Park", "network": "CTA", "operator": "Chicago Transit Authority", "operator:wikidata": "Q117309", "public_transport": "stop_position", "railway": "stop", "subway": "yes"}}, {"type": "node", "id": 271555253, "lat": 41.8790674, "lon": -87.6392328, "tags": {"name": "Chicago Union Station", "public_transport": "stop_position", "railway": "stop", "railway:ref": "CHI", "train": "yes"}}, {"type": "node", "id": 271555275, "lat": 41.8790699, "lon": -87.6390715, "tags": {"name": "Chicago Union Station", "network": "Amtrak;Metra", "public_transport": "stop_position", "railway": "stop", "railway:ref": "CHI", "train": "yes"}}, {"type": "node", "id": 271555308, "lat": 41.8790725, "lon": -87.638903, "tags": {"name": "Chicago Union Station", "network": "Amtrak", "public_transport": "stop_position", "railway": "stop", "railway:ref": "CHI", "train": "yes"}}, {"type": "node", "id": 271558042, "lat": 41.8782905, "lon": -87.6389821, "tags": {"name": "Chicago Union Station", "public_transport": "stop_position", "railway": "stop", "railway:ref": "CHI", "train": "yes"}}, {"type": "node", "id": 271558070, "lat": 41.8782893, "lon": -87.6391527, "tags": {"name": "Chicago Union Station", "public_transport": "stop_position", "railway": "stop", "railway:ref": "CHI", "train": "yes"}}, {"type": "node", "id": 271558100, "lat": 41.878288, "lon": -87.6393308, "tags": {"name": "Chicago Union Station", "public_transport": "stop_position", "railway": "stop", "railway:ref": "CHI", "train": "yes"}}, {"type": "node", "id": 271558114, "lat": 41.8779831, "lon": -87.6394686, "tags": {"name": "Chicago Union Station", "public_transport": "stop_position", "railway": "stop", "railway:ref": "CHI", "train": "yes"}}, {"type": "node", "id": 272208413, "lat": 41.8679126, "lon": -87.6240522, "tags": {"bus": "yes", "local_ref": "1580", "name": "Michigan & Roosevelt", "network": "CTA", "operator": "Chicago Transit Authority", "public_transport": "stop_position"}}, {"type": "node", "id": 289820702, "lat": 41.8832591, "lon": -87.6294739, "tags": {"addr:city": "Chicago", "addr:housenumber": "19", "addr:postcode": "60602", "addr:state": "IL", "addr:street": "North Dearborn Street", "name": "Washington", "network": "CTA", "operator": "Chicago Transit Authority", "platforms": "1", "public_transport": "station", "railway": "station", "station": "subway", "subway": "yes", "wheelchair": "no", "wikidata": "Q3566503", "wikipedia": "en:Washington station (CTA Blue Line)"}}, {"type": "node", "id": 289821002, "lat": 41.880744, "lon": -87.6294101, "tags": {"addr:city": "Chicago", "addr:housenumber": "114", "addr:postcode": "60603", "addr:state": "IL", "addr:street": "South Dearborn Street", "name": "Monroe", "network": "CTA", "operator": "Chicago Transit Authority", "platforms": "1", "public_transport": "station", "railway": "station", "station": "subway", "subway": "yes", "wheelchair": "no", "wikidata": "Q3321303", "wikipedia": "en:Monroe station (CTA Blue Line)"}}, {"type": "node", "id": 289821023, "lat": 41.8782004, "lon": -87.6293261, "tags": {"addr:city": "Chicago", "addr:housenumber": "328", "addr:postcode": "60604", "addr:state": "IL", "addr:street": "South Dearborn Street", "name": "Jackson", "network": "CTA", "operator": "Chicago Transit Authority", "platforms": "1", "public_transport": "station", "railway": "station", "station": "subway", "subway": "yes", "wheelchair": "yes", "wikidata": "Q6116928", "wikipedia": "en:Jackson station (CTA Blue Line)"}}, {"type": "node", "id": 306084356, "lat": 41.9524755, "lon": -87.7284391, "tags": {"name": "Irving Park", "network": "CTA", "operator": "Chicago Transit Authority", "operator:wikidata": "Q117309", "public_transport": "stop_position", "railway": "stop", "subway": "yes"}}, {"type": "node", "id": 310334163, "lat": 41.9749721, "lon": -87.8902406, "tags": {"light_rail": "yes", "name": "Terminal 5", "network": "ATS", "operator": "O'Hare ATS", "public_transport": "station", "railway": "station", "station": "light_rail"}}, {"type": "node", "id": 351093452, "lat": 41.765887, "lon": -87.6052569, "tags": {"bench": "no", "bus": "yes", "local_ref": "10840", "name": "71st Street & Cottage Grove/South Chicago", "network": "CTA", "operator": "Chicago Transit Authority", "public_transport": "stop_position", "ref": "10840", "shelter": "no"}}, {"type": "node", "id": 365490450, "lat": 41.9647237, "lon": -87.6580506, "tags": {"name": "Wilson", "network": "CTA", "operator": "Chicago Transit Authority", "operator:wikidata": "Q117309", "public_transport": "stop_position", "railway": "stop", "subway": "yes"}}, {"type": "node", "id": 385665627, "lat": 41.8823317, "lon": -87.638592, "tags": {"amenity": "ferry_terminal", "ferry": "yes", "name": "Ogilvie / Union (West Loop) Water Taxi Terminal", "public_transport": "station"}}, {"type": "node", "id": 385666266, "lat": 41.8571347, "lon": -87.6349866, "tags": {"amenity": "ferry_terminal", "ferry": "yes", "name": "Chinatown Water Taxi Terminal", "public_transport": "station"}}, {"type": "node", "id": 387573439, "lat": 41.7501051, "lon": -87.6251232, "tags": {"name": "79th", "network": "CTA", "operator": "Chicago Transit Authority", "operator:wikidata": "Q117309", "public_transport": "stop_position", "railway": "stop", "subway": "yes"}}, {"type": "node", "id": 389151453, "lat": 41.9252001, "lon": -87.6528122, "tags": {"addr:city": "Chicago", "addr:housenumber": "943", "addr:postcode": "60614", "addr:state": "IL", "addr:street": "West Fullerton Avenue", "name": "Fullerton", "network": "CTA", "operator": "Chicago Transit Authority", "platforms": "2", "public_transport": "station", "railway": "station", "station": "subway", "subway": "yes", "website": "http://www.transitchicago.com/travel_information/station.aspx?StopId=59", "wheelchair": "yes", "wikidata": "Q3090793", "wikipedia": "en:Fullerton (CTA station)"}}, {"type": "node", "id": 389153234, "lat": 41.97339, "lon": -87.658608, "tags": {"name": "Argyle", "network": "CTA", "operator": "Chicago Transit Authority", "operator:wikidata": "Q117309", "public_transport": "stop_position", "railway": "stop", "subway": "yes"}}, {"type": "node", "id": 389153439, "lat": 41.978014, "lon": -87.658736, "tags": {"name": "Berwyn", "network": "CTA", "operator": "Chicago Transit Authority", "operator:wikidata": "Q117309", "public_transport": "stop_position", "railway": "stop", "subway": "yes"}}, {"type": "node", "id": 401449146, "lat": 41.8572583, "lon": -87.617683, "tags": {"name": "18th Street", "network": "Metra", "public_transport": "stop_position", "railway": "stop", "ref:metra": "18TH-UP", "train": "yes"}}, {"type": "node", "id": 401450156, "lat": 41.8435573, "lon": -87.6131238, "tags": {"name": "27th Street", "network": "Metra", "public_transport": "stop_position", "railway": "stop", "ref:metra": "27TH-UP", "train": "yes"}}, {"type": "node", "id": 401454320, "lat": 41.8021274, "lon": -87.5873322, "tags": {"name": "51st-53rd Street (Hyde Park)", "network": "Metra", "public_transport": "stop_position", "railway": "stop", "ref:metra": "51ST-53RD", "train": "yes"}}, {"type": "node", "id": 401454321, "lat": 41.8006754, "lon": -87.5870793, "tags": {"name": "51st-53rd Street (Hyde Park)", "network": "Metra", "public_transport": "stop_position", "railway": "stop", "ref:metra": "51ST-53RD", "train": "yes"}}, {"type": "node", "id": 401454514, "lat": 41.791877, "lon": -87.5879197, "tags": {"name": "55th-56th-57th Street", "network": "Metra;NICTD", "public_transport": "stop_position", "railway": "stop", "ref:metra": "55-56-57TH", "train": "yes"}}, {"type": "node", "id": 401456505, "lat": 41.7593521, "lon": -87.5952444, "tags": {"name": "75th Street (Grand Crossing)", "network": "Metra", "public_transport": "stop_position", "railway": "stop", "ref:metra": "75TH-UP", "train": "yes"}}, {"type": "node", "id": 401456508, "lat": 41.7590043, "lon": -87.595427, "tags": {"name": "75th Street (Grand Crossing)", "network": "Metra", "public_transport": "stop_position", "railway": "stop", "ref:metra": "75TH-UP", "train": "yes"}}, {"type": "node", "id": 401458379, "lat": 41.7376851, "lon": -87.6001755, "tags": {"name": "87th Street (Woodruff)", "network": "Metra", "public_transport": "stop_position", "railway": "stop", "ref:metra": "87TH-UP", "train": "yes"}}, {"type": "node", "id": 401458387, "lat": 41.7373101, "lon": -87.6003726, "tags": {"name": "87th Street (Woodruff)", "network": "Metra", "public_transport": "stop_position", "railway": "stop", "ref:metra": "87TH-UP", "train": "yes"}}, {"type": "node", "id": 414194280, "lat": 41.7511608, "lon": -87.585532, "tags": {"bus": "yes", "name": "Stony Island & South Chicago/79th Street", "network": "CTA", "operator": "Chicago Transit Authority", "public_transport": "stop_position", "ref": "7116"}}, {"type": "node", "id": 482809449, "lat": 41.8604162, "lon": -87.6473572, "tags": {"name": "Halsted Street", "network": "Metra", "operator": "Metra", "platforms": "2", "public_transport": "station", "railway": "station", "railway:position": "mi:1.8", "ref:metra": "HALSTED", "train": "yes", "wheelchair": "no", "wikidata": "Q5643580", "wikipedia": "en:Halsted Street station"}}, {"type": "node", "id": 497436468, "lat": 41.8865118, "lon": -87.7445596, "tags": {"name": "Cicero", "network": "CTA", "operator": "Chicago Transit Authority", "operator:wikidata": "Q117309", "public_transport": "stop_position", "railway": "stop", "subway": "yes"}}, {"type": "node", "id": 497437065, "lat": 41.8849249, "lon": -87.7165844, "tags": {"name": "Conservatory-Central Park Drive", "network": "CTA", "operator": "Chicago Transit Authority", "operator:wikidata": "Q117309", "public_transport": "stop_position", "railway": "stop", "short_name": "Conservatory", "subway": "yes"}}, {"type": "node", "id": 544615634, "lat": 41.8882254, "lon": -87.7069025, "tags": {"name": "Kedzie", "network": "Metra", "operator": "Metra", "platforms": "1", "public_transport": "station", "railway": "station", "ref:metra": "KEDZIE", "train": "yes", "wheelchair": "no", "wikidata": "Q6382637", "wikipedia": "en:Kedzie station (Metra)"}}, {"type": "node", "id": 567515074, "lat": 41.9170269, "lon": -87.6681783, "tags": {"addr:city": "Chicago", "addr:housenumber": "2001", "addr:postcode": "60614", "addr:state": "IL", "addr:street": "North Ashland Avenue", "name": "Clybourn", "network": "Metra", "operator": "Metra", "public_transport": "station", "railway": "station", "ref:metra": "CLYBOURN", "train": "yes", "wheelchair": "no", "wikidata": "Q5136803", "wikipedia": "en:Clybourn station"}}, {"type": "node", "id": 567516636, "lat": 41.9685424, "lon": -87.6745241, "tags": {"name": "Ravenswood", "network": "Metra", "operator": "Metra", "operator:wikidata": "Q1814208", "public_transport": "stop_position", "railway": "stop", "ref:metra": "RAVENSWOOD", "train": "yes"}}, {"type": "node", "id": 567519518, "lat": 42.009574, "lon": -87.6755503, "tags": {"addr:city": "Chicago", "addr:housenumber": "7000", "addr:postcode": "60626", "addr:state": "IL", "addr:street": "North Ravenswood Avenue", "name": "Rogers Park", "network": "Metra", "operator": "Metra", "platforms": "2", "public_transport": "station", "railway": "station", "ref:metra": "ROGERPK", "train": "yes", "website": "https://metrarail.com/metra/en/home/maps_schedules/metra_system_map/up-n/station.ROGERPK.html", "wheelchair": "yes", "wikidata": "Q7359319", "wikipedia": "en:Rogers Park (Metra station)"}}, {"type": "node", "id": 688942458, "lat": 41.9796031, "lon": -87.7777196, "tags": {"name": "Gladstone Park", "network": "Metra", "operator": "Metra", "public_transport": "station", "railway": "station", "ref:metra": "GLADSTONEP", "train": "yes", "wikidata": "Q5566344"}}, {"type": "node", "id": 705006058, "lat": 41.857545, "lon": -87.6177481, "tags": {"addr:city": "Chicago", "addr:postcode": "60616", "addr:state": "IL", "addr:street": "East 18th Drive", "name": "18th Street", "network": "Metra", "operator": "Metra", "public_transport": "station", "railway": "halt", "ref:metra": "18TH-UP", "train": "yes", "wikidata": "Q4557669", "wikipedia": "en:18th Street station (Illinois)"}}, {"type": "node", "id": 705736885, "lat": 41.8293794, "lon": -87.6807256, "tags": {"name": "35th/Archer", "network": "CTA", "operator": "Chicago Transit Authority", "operator:wikidata": "Q117309", "public_transport": "stop_position", "railway": "stop", "subway": "yes"}}, {"type": "node", "id": 705766139, "lat": 41.8751422, "lon": -87.6321032, "tags": {"name": "LaSalle Street Station", "network": "Metra", "operator": "Metra", "operator:wikidata": "Q1814208", "public_transport": "stop_position", "railway": "stop", "ref:metra": "LSS", "train": "yes"}}, {"type": "node", "id": 705766140, "lat": 41.8751451, "lon": -87.6321479, "tags": {"name": "LaSalle Street Station", "network": "Metra", "operator": "Metra", "operator:wikidata": "Q1814208", "public_transport": "stop_position", "railway": "stop", "ref:metra": "LSS", "train": "yes"}}, {"type": "node", "id": 705766153, "lat": 41.8751335, "lon": -87.6324426, "tags": {"name": "LaSalle Street Station", "network": "Metra", "operator": "Metra", "operator:wikidata": "Q1814208", "public_transport": "stop_position", "railway": "stop", "ref:metra": "LSS", "train": "yes"}}, {"type": "node", "id": 705766156, "lat": 41.8751375, "lon": -87.6319785, "tags": {"name": "LaSalle Street Station", "network": "Metra", "operator": "Metra", "operator:wikidata": "Q1814208", "public_transport": "stop_position", "railway": "stop", "ref:metra": "LSS", "train": "yes"}}, {"type": "node", "id": 705766160, "lat": 41.875137, "lon": -87.6319333, "tags": {"name": "LaSalle Street Station", "network": "Metra", "operator": "Metra", "operator:wikidata": "Q1814208", "public_transport": "stop_position", "railway": "stop", "ref:metra": "LSS", "train": "yes"}}, {"type": "node", "id": 705766170, "lat": 41.8751449, "lon": -87.6322725, "tags": {"name": "LaSalle Street Station", "network": "Metra", "operator": "Metra", "operator:wikidata": "Q1814208", "public_transport": "stop_position", "railway": "stop", "ref:metra": "LSS", "train": "yes"}}, {"type": "node", "id": 705766174, "lat": 41.8751332, "lon": -87.6324885, "tags": {"name": "LaSalle Street Station", "network": "Metra", "operator": "Metra", "operator:wikidata": "Q1814208", "public_transport": "stop_position", "railway": "stop", "ref:metra": "LSS", "train": "yes"}}, {"type": "node", "id": 705766180, "lat": 41.8751412, "lon": -87.6323186, "tags": {"name": "LaSalle Street Station", "network": "Metra", "operator": "Metra", "operator:wikidata": "Q1814208", "public_transport": "stop_position", "railway": "stop", "ref:metra": "LSS", "train": "yes"}}, {"type": "node", "id": 706918394, "lat": 41.8577983, "lon": -87.6850211, "tags": {"name": "Western Avenue", "network": "Metra", "operator": "Metra", "public_transport": "station", "railway": "station", "railway:position": "mi:3.7", "ref:metra": "BNWESTERN", "train": "yes", "wikidata": "Q7987600"}}, {"type": "node", "id": 706918837, "lat": 41.8575676, "lon": -87.685837, "tags": {"name": "Western Avenue", "network": "Metra", "operator": "Metra", "operator:wikidata": "Q1814208", "public_transport": "stop_position", "railway": "stop", "railway:position": "mi:3.7", "ref:metra": "BNWESTERN", "train": "yes"}}, {"type": "node", "id": 706918838, "lat": 41.8581541, "lon": -87.6839237, "tags": {"name": "Western Avenue", "network": "Metra", "public_transport": "stop_position", "railway": "stop", "railway:position": "mi:3.7", "ref:metra": "BNWESTERN", "train": "yes"}}, {"type": "node", "id": 706918876, "lat": 41.8575065, "lon": -87.6861578, "tags": {"name": "Western Avenue", "network": "Metra", "operator": "Metra", "operator:wikidata": "Q1814208", "public_transport": "stop_position", "railway": "stop", "railway:position": "mi:3.7", "ref:metra": "BNWESTERN", "train": "yes"}}, {"type": "node", "id": 706929554, "lat": 41.7790375, "lon": -87.6445259, "tags": {"addr:city": "Chicago", "addr:housenumber": "6321", "addr:postcode": "60621", "addr:state": "IL", "addr:street": "South Halsted Street", "name": "Halsted", "network": "CTA", "operator": "Chicago Transit Authority", "platforms": "2", "public_transport": "station", "railway": "station", "station": "subway", "subway": "yes", "website": "http://www.transitchicago.com/travel_information/station.aspx?StopId=65", "wheelchair": "yes", "wikidata": "Q3126219", "wikipedia": "en:Halsted (CTA Green Line station)"}}, {"type": "node", "id": 706934716, "lat": 41.8019141, "lon": -87.6185232, "tags": {"addr:city": "Chicago", "addr:housenumber": "319", "addr:postcode": "60615", "addr:state": "IL", "addr:street": "East 51st Street", "name": "51st", "network": "CTA", "operator": "Chicago Transit Authority", "platforms": "2", "public_transport": "station", "railway": "station", "station": "subway", "subway": "yes", "wheelchair": "yes", "wikidata": "Q2817438", "wikipedia": "en:51st station"}}, {"type": "node", "id": 706934717, "lat": 41.8093747, "lon": -87.6188643, "tags": {"addr:city": "Chicago", "addr:housenumber": "314", "addr:postcode": "60653", "addr:state": "IL", "addr:street": "East 47th Street", "name": "47th", "network": "CTA", "operator": "Chicago Transit Authority", "platforms": "2", "public_transport": "station", "railway": "station", "station": "subway", "subway": "yes", "wheelchair": "yes", "wikidata": "Q2816904", "wikipedia": "en:47th station (CTA Green Line)"}}, {"type": "node", "id": 706934719, "lat": 41.8217983, "lon": -87.621299, "tags": {"addr:city": "Chicago", "addr:housenumber": "4003", "addr:postcode": "60653", "addr:state": "IL", "addr:street": "South Indiana Avenue", "name": "Indiana", "network": "CTA", "operator": "Chicago Transit Authority", "platforms": "2", "public_transport": "station", "railway": "station", "station": "subway", "subway": "yes", "wheelchair": "yes", "wikidata": "Q3150103", "wikipedia": "en:Indiana station (CTA)"}}, {"type": "node", "id": 706971968, "lat": 41.8689956, "lon": -87.6216823, "tags": {"name": "Museum Campus/11th Street", "network": "Metra;NICTD", "old_name": "Roosevelt Road", "operator": "Metra", "platforms": "2", "public_transport": "station", "railway": "station", "ref:metra": "MUSEUM", "tickets:public_transport": "yes", "train": "yes", "vending_machine": "public_transport_tickets", "wheelchair": "yes", "wikidata": "Q6940637"}}, {"type": "node", "id": 708314764, "lat": 41.8882653, "lon": -87.7066249, "tags": {"name": "Kedzie", "network": "Metra", "public_transport": "stop_position", "railway": "stop", "ref:metra": "KEDZIE", "train": "yes"}}, {"type": "node", "id": 708328787, "lat": 41.8829229, "lon": -87.6408058, "tags": {"name": "Ogilvie Transportation Center", "network": "Metra", "operator": "Metra", "operator:wikidata": "Q1814208", "public_transport": "stop_position", "railway": "stop", "ref:metra": "OTC", "train": "yes"}}, {"type": "node", "id": 708328845, "lat": 41.8829206, "lon": -87.6409183, "tags": {"name": "Ogilvie Transportation Center", "network": "Metra", "operator": "Metra", "operator:wikidata": "Q1814208", "public_transport": "stop_position", "railway": "stop", "ref:metra": "OTC", "train": "yes"}}, {"type": "node", "id": 708328846, "lat": 41.882921, "lon": -87.6409484, "tags": {"name": "Ogilvie Transportation Center", "network": "Metra", "operator": "Metra", "operator:wikidata": "Q1814208", "public_transport": "stop_position", "railway": "stop", "ref:metra": "OTC", "train": "yes"}}, {"type": "node", "id": 708328861, "lat": 41.8829235, "lon": -87.640775, "tags": {"name": "Ogilvie Transportation Center", "network": "Metra", "operator": "Metra", "operator:wikidata": "Q1814208", "public_transport": "stop_position", "railway": "stop", "ref:metra": "OTC", "train": "yes"}}, {"type": "node", "id": 708328899, "lat": 41.88291, "lon": -87.6410605, "tags": {"name": "Ogilvie Transportation Center", "network": "Metra", "operator": "Metra", "operator:wikidata": "Q1814208", "public_transport": "stop_position", "railway": "stop", "ref:metra": "OTC", "train": "yes"}}, {"type": "node", "id": 708329921, "lat": 41.882943, "lon": -87.6400918, "tags": {"name": "Ogilvie Transportation Center", "network": "Metra", "operator": "Metra", "operator:wikidata": "Q1814208", "public_transport": "stop_position", "railway": "stop", "ref:metra": "OTC", "train": "yes"}}, {"type": "node", "id": 708329927, "lat": 41.8829436, "lon": -87.640056, "tags": {"name": "Ogilvie Transportation Center", "network": "Metra", "operator": "Metra", "operator:wikidata": "Q1814208", "public_transport": "stop_position", "railway": "stop", "ref:metra": "OTC", "train": "yes"}}, {"type": "node", "id": 708329929, "lat": 41.8829388, "lon": -87.6399473, "tags": {"name": "Ogilvie Transportation Center", "network": "Metra", "operator": "Metra", "operator:wikidata": "Q1814208", "public_transport": "stop_position", "railway": "stop", "ref:metra": "OTC", "train": "yes"}}, {"type": "node", "id": 708329935, "lat": 41.8829334, "lon": -87.64038, "tags": {"name": "Ogilvie Transportation Center", "network": "Metra", "operator": "Metra", "operator:wikidata": "Q1814208", "public_transport": "stop_position", "railway": "stop", "ref:metra": "OTC", "train": "yes"}}, {"type": "node", "id": 708329942, "lat": 41.8829314, "lon": -87.6404862, "tags": {"name": "Ogilvie Transportation Center", "network": "Metra", "operator": "Metra", "operator:wikidata": "Q1814208", "public_transport": "stop_position", "railway": "stop", "ref:metra": "OTC", "train": "yes"}}, {"type": "node", "id": 708329947, "lat": 41.8829368, "lon": -87.6401998, "tags": {"name": "Ogilvie Transportation Center", "network": "Metra", "operator": "Metra", "operator:wikidata": "Q1814208", "public_transport": "stop_position", "railway": "stop", "ref:metra": "OTC", "train": "yes"}}, {"type": "node", "id": 708329951, "lat": 41.8829361, "lon": -87.6402347, "tags": {"name": "Ogilvie Transportation Center", "network": "Metra", "operator": "Metra", "operator:wikidata": "Q1814208", "public_transport": "stop_position", "railway": "stop", "ref:metra": "OTC", "train": "yes"}}, {"type": "node", "id": 708329958, "lat": 41.8829344, "lon": -87.6403436, "tags": {"name": "Ogilvie Transportation Center", "network": "Metra", "operator": "Metra", "operator:wikidata": "Q1814208", "public_transport": "stop_position", "railway": "stop", "ref:metra": "OTC", "train": "yes"}}, {"type": "node", "id": 708329960, "lat": 41.8829277, "lon": -87.6406641, "tags": {"name": "Ogilvie Transportation Center", "network": "Metra", "operator": "Metra", "operator:wikidata": "Q1814208", "public_transport": "stop_position", "railway": "stop", "ref:metra": "OTC", "train": "yes"}}, {"type": "node", "id": 708329962, "lat": 41.8829273, "lon": -87.6406309, "tags": {"name": "Ogilvie Transportation Center", "network": "Metra", "operator": "Metra", "operator:wikidata": "Q1814208", "public_transport": "stop_position", "railway": "stop", "ref:metra": "OTC", "train": "yes"}}, {"type": "node", "id": 708329964, "lat": 41.8829308, "lon": -87.6405197, "tags": {"name": "Ogilvie Transportation Center", "network": "Metra", "operator": "Metra", "operator:wikidata": "Q1814208", "public_transport": "stop_position", "railway": "stop", "ref:metra": "OTC", "train": "yes"}}, {"type": "node", "id": 711332489, "lat": 41.7263847, "lon": -87.554143, "tags": {"bus": "yes", "local_ref": "11949", "name": "93rd Street & Escanaba", "network": "CTA", "operator": "Chicago Transit Authority", "public_transport": "stop_position"}}, {"type": "node", "id": 711332675, "lat": 41.751289, "lon": -87.5859622, "tags": {"bus": "yes", "name": "Stony Island & South Chicago/79th Street", "network": "CTA", "operator": "Chicago Transit Authority", "public_transport": "stop_position", "ref": "7195"}}, {"type": "node", "id": 712890391, "lat": 41.766049, "lon": -87.587881, "tags": {"addr:city": "Chicago", "addr:postcode": "60649", "addr:state": "IL", "addr:street": "South Stony Island Avenue", "name": "Stony Island", "network": "Metra", "operator": "Metra", "public_transport": "station", "railway": "station", "ref:metra": "STONYISLND", "train": "yes", "wheelchair": "yes", "wikidata": "Q7619568", "wikipedia": "en:Stony Island station"}}, {"type": "node", "id": 712890392, "lat": 41.766146, "lon": -87.5776229, "tags": {"addr:city": "Chicago", "addr:postcode": "60649", "addr:state": "IL", "alt_name": "Jeffery Boulevard", "chicago:building_id": "571859", "name": "Bryn Mawr", "network": "Metra", "operator": "Metra", "public_transport": "station", "railway": "station", "ref:metra": "BRYNMAWR", "train": "yes", "wheelchair": "yes", "wikidata": "Q4980888", "wikipedia": "en:Bryn Mawr station (Metra)"}}, {"type": "node", "id": 712890393, "lat": 41.7651657, "lon": -87.5656415, "tags": {"addr:city": "Chicago", "addr:postcode": "60649", "addr:state": "IL", "addr:street": "South Yates Boulevard", "name": "South Shore", "network": "Metra", "operator": "Metra", "public_transport": "station", "railway": "station", "ref:metra": "SOUTHSHORE", "train": "yes", "wheelchair": "yes", "wikidata": "Q7568433", "wikipedia": "en:South Shore station"}}, {"type": "node", "id": 712890608, "lat": 41.765907, "lon": -87.5960738, "tags": {"bus": "yes", "name": "71st Street & Woodlawn", "network": "CTA", "operator": "Chicago Transit Authority", "public_transport": "stop_position", "ref": "10796"}}, {"type": "node", "id": 712890628, "lat": 41.7656261, "lon": -87.5660033, "tags": {"name": "South Shore", "network": "Metra", "public_transport": "stop_position", "railway": "stop", "ref:metra": "SOUTHSHORE", "train": "yes"}}, {"type": "node", "id": 712890648, "lat": 41.7661743, "lon": -87.578112, "tags": {"name": "Bryn Mawr", "network": "Metra", "public_transport": "stop_position", "railway": "stop", "ref:metra": "BRYNMAWR", "train": "yes"}}, {"type": "node", "id": 712890660, "lat": 41.7660805, "lon": -87.5885257, "tags": {"name": "Stony Island", "network": "Metra", "public_transport": "stop_position", "railway": "stop", "ref:metra": "STONYISLND", "train": "yes"}}, {"type": "node", "id": 712890903, "lat": 41.766022, "lon": -87.5871611, "tags": {"name": "Stony Island", "network": "Metra", "public_transport": "stop_position", "railway": "stop", "ref:metra": "STONYISLND", "train": "yes"}}, {"type": "node", "id": 712890924, "lat": 41.7661153, "lon": -87.5770872, "tags": {"name": "Bryn Mawr", "network": "Metra", "public_transport": "stop_position", "railway": "stop", "ref:metra": "BRYNMAWR", "train": "yes"}}, {"type": "node", "id": 712890970, "lat": 41.7647498, "lon": -87.5653288, "tags": {"name": "South Shore", "network": "Metra", "public_transport": "stop_position", "railway": "stop", "ref:metra": "SOUTHSHORE", "train": "yes"}}, {"type": "node", "id": 712905970, "lat": 41.7584817, "lon": -87.559517, "tags": {"addr:city": "Chicago", "addr:postcode": "60649", "addr:state": "IL", "addr:street": "East 75th Street", "name": "Windsor Park", "network": "Metra", "operator": "Metra", "public_transport": "station", "railway": "station", "ref:metra": "WINDSORPK", "train": "yes", "wheelchair": "yes", "wikidata": "Q8024670", "wikipedia": "en:Windsor Park station"}}, {"type": "node", "id": 712905971, "lat": 41.7525316, "lon": -87.5530981, "tags": {"addr:city": "Chicago", "addr:postcode": "60649", "addr:state": "IL", "addr:street": "East 79th Street", "name": "Cheltenham (79th Street)", "network": "Metra", "operator": "Metra", "public_transport": "station", "railway": "station", "ref:metra": "79TH-SC", "train": "yes", "wheelchair": "yes", "wikidata": "Q5090180", "wikipedia": "en:Cheltenham station (Metra)"}}, {"type": "node", "id": 712906098, "lat": 41.753222, "lon": -87.5537792, "tags": {"name": "Cheltenham (79th Street)", "network": "Metra", "public_transport": "stop_position", "railway": "stop", "ref:metra": "79TH-SC", "train": "yes"}}, {"type": "node", "id": 712906106, "lat": 41.7586603, "lon": -87.5596458, "tags": {"name": "Windsor Park", "network": "Metra", "public_transport": "stop_position", "railway": "stop", "ref:metra": "WINDSORPK", "train": "yes"}}, {"type": "node", "id": 712906144, "lat": 41.7578146, "lon": -87.5588475, "tags": {"name": "Windsor Park", "network": "Metra", "public_transport": "stop_position", "railway": "stop", "ref:metra": "WINDSORPK", "train": "yes"}}, {"type": "node", "id": 712906155, "lat": 41.7523763, "lon": -87.5529778, "tags": {"name": "Cheltenham (79th Street)", "network": "Metra", "public_transport": "stop_position", "railway": "stop", "ref:metra": "79TH-SC", "train": "yes"}}, {"type": "node", "id": 712911963, "lat": 41.7452586, "lon": -87.5515587, "tags": {"addr:city": "Chicago", "addr:postcode": "60617", "addr:state": "IL", "addr:street": "East 83rd Street", "name": "83rd Street", "network": "Metra", "operator": "Metra", "public_transport": "station", "railway": "station", "ref:metra": "83RD-SC", "train": "yes", "wheelchair": "yes", "wikidata": "Q4644741", "wikipedia": "en:83rd Street station"}}, {"type": "node", "id": 712911964, "lat": 41.7384761, "lon": -87.5483211, "tags": {"addr:city": "Chicago", "addr:postcode": "60617", "addr:state": "IL", "addr:street": "East 87th Street", "name": "87th Street", "network": "Metra", "operator": "Metra", "public_transport": "station", "railway": "station", "ref:metra": "87TH-SC", "train": "yes", "wheelchair": "yes", "wikidata": "Q4645012", "wikipedia": "en:87th Street station"}}, {"type": "node", "id": 712911965, "lat": 41.7273821, "lon": -87.5477847, "tags": {"addr:city": "Chicago", "addr:postcode": "60617", "addr:state": "IL", "addr:street": "East 93rd Street", "name": "South Chicago (93rd Street)", "network": "Metra", "operator": "Metra", "public_transport": "station", "railway": "station", "ref:metra": "93RD-SC", "tickets:public_transport": "yes", "train": "yes", "vending_machine": "public_transport_tickets", "wheelchair": "yes", "wikidata": "Q7566805", "wikipedia": "en:South Chicago (93rd Street) station"}}, {"type": "node", "id": 712912351, "lat": 41.7452436, "lon": -87.5516067, "tags": {"name": "83rd Street", "network": "Metra", "public_transport": "stop_position", "railway": "stop", "ref:metra": "83RD-SC", "train": "yes"}}, {"type": "node", "id": 712912385, "lat": 41.7380101, "lon": -87.5482783, "tags": {"name": "87th Street", "network": "Metra", "public_transport": "stop_position", "railway": "stop", "ref:metra": "87TH-SC", "train": "yes"}}, {"type": "node", "id": 712912413, "lat": 41.726716, "lon": -87.5478263, "tags": {"name": "South Chicago (93rd Street)", "network": "Metra", "public_transport": "stop_position", "railway": "stop", "ref:metra": "93RD-SC", "train": "yes"}}, {"type": "node", "id": 712912419, "lat": 41.72672, "lon": -87.5477136, "tags": {"name": "South Chicago (93rd Street)", "network": "Metra", "public_transport": "stop_position", "railway": "stop", "ref:metra": "93RD-SC", "train": "yes"}}, {"type": "node", "id": 712912478, "lat": 41.7462507, "lon": -87.5515326, "tags": {"name": "83rd Street", "network": "Metra", "public_transport": "stop_position", "railway": "stop", "ref:metra": "83RD-SC", "train": "yes"}}, {"type": "node", "id": 716918055, "lat": 41.7366279, "lon": -87.6446465, "tags": {"addr:city": "Chicago", "addr:housenumber": "820", "addr:postcode": "60620", "addr:state": "IL", "addr:street": "West 87th Street", "name": "Gresham", "network": "Metra", "operator": "Metra", "public_transport": "station", "railway": "station", "ref:metra": "GRESHAM", "train": "yes", "website": "https://metrarail.com/metra/en/home/maps_schedules/metra_system_map/ri/station.GRESHAM.html", "wheelchair": "no", "wikidata": "Q14687516", "wikipedia": "en:Gresham (Metra station)"}}, {"type": "node", "id": 716918065, "lat": 41.7321231, "lon": -87.65896, "tags": {"addr:city": "Chicago", "addr:housenumber": "8901", "addr:postcode": "60620", "addr:state": "IL", "addr:street": "South Loomis Street", "name": "Brainerd", "network": "Metra", "operator": "Metra", "platforms": "2", "public_transport": "station", "railway": "station", "ref:metra": "BRAINERD", "train": "yes", "wheelchair": "yes", "wikidata": "Q4955874", "wikipedia": "en:Brainerd (Metra station)"}}, {"type": "node", "id": 716918077, "lat": 41.727968, "lon": -87.6671729, "tags": {"addr:city": "Chicago", "addr:housenumber": "9105", "addr:postcode": "60620", "addr:state": "IL", "addr:street": "South Prospect Street", "name": "91st Street (Beverly Hills)", "network": "Metra", "operator": "Metra", "platforms": "2", "public_transport": "station", "railway": "station", "ref:metra": "91ST-BEV", "train": "yes", "wikidata": "Q4645769"}}, {"type": "node", "id": 716918084, "lat": 41.7214304, "lon": -87.6675082, "tags": {"addr:city": "Chicago", "addr:housenumber": "1766", "addr:postcode": "60643", "addr:state": "IL", "addr:street": "West 95th Street", "name": "95th Street (Beverly Hills)", "network": "Metra", "operator": "Metra", "platforms": "2", "public_transport": "station", "railway": "station", "ref:metra": "95TH-BEV", "train": "yes", "wikidata": "Q4646041", "wikipedia": "en:95th Street\u2013Beverly Hills station"}}, {"type": "node", "id": 716918694, "lat": 41.7378901, "lon": -87.6441124, "tags": {"local_ref": "9;8;7;6", "name": "Gresham", "network": "Metra", "public_transport": "stop_position", "railway": "stop", "ref:metra": "GRESHAM", "train": "yes"}}, {"type": "node", "id": 716925805, "lat": 41.7363039, "lon": -87.6448015, "tags": {"local_ref": "9;8;7;6", "name": "Gresham", "network": "Metra", "public_transport": "stop_position", "railway": "stop", "ref:metra": "GRESHAM", "train": "yes"}}, {"type": "node", "id": 717283168, "lat": 41.705969, "lon": -87.6559566, "tags": {"name": "103rd Street (Washington Heights)", "network": "Metra", "operator": "Metra", "operator:wikidata": "Q1814208", "public_transport": "stop_position", "railway": "stop", "ref:metra": "WASHHGTS", "train": "yes"}}, {"type": "node", "id": 717468715, "lat": 41.6925678, "lon": -87.6705457, "tags": {"addr:city": "Chicago", "addr:housenumber": "11046", "addr:postcode": "60643", "addr:state": "IL", "addr:street": "South Hale Avenue", "name": "111th Street (Morgan Park)", "network": "Metra", "operator": "Metra", "platforms": "2", "public_transport": "station", "railway": "station", "ref:metra": "111TH-BEV", "train": "yes", "wikidata": "Q4547350"}}, {"type": "node", "id": 717468735, "lat": 41.6853976, "lon": -87.6714035, "tags": {"addr:city": "Chicago", "addr:housenumber": "1982", "addr:postcode": "60643", "addr:state": "IL", "addr:street": "West 115th Street", "name": "115th Street (Morgan Park)", "network": "Metra", "operator": "Metra", "platforms": "2", "public_transport": "station", "railway": "station", "ref:metra": "115TH-BEV", "train": "yes", "wikidata": "Q4547532", "wikipedia": "en:115th Street\u2013Morgan Park station"}}, {"type": "node", "id": 717468799, "lat": 41.7136695, "lon": -87.6673158, "tags": {"addr:city": "Chicago", "addr:housenumber": "9901", "addr:postcode": "60643", "addr:state": "IL", "addr:street": "South Walden Parkway", "name": "99th Street (Beverly Hills)", "network": "Metra", "operator": "Metra", "public_transport": "station", "railway": "station", "ref:metra": "99TH-BEV", "train": "yes", "wikidata": "Q4646348"}}, {"type": "node", "id": 717468809, "lat": 41.7061682, "lon": -87.6688917, "tags": {"addr:city": "Chicago", "addr:housenumber": "10301", "addr:postcode": "60643", "addr:state": "IL", "addr:street": "South Walden Parkway", "name": "103rd Street (Beverly Hills)", "network": "Metra", "operator": "Metra", "platforms": "2", "public_transport": "station", "railway": "station", "ref:metra": "103RD-BEV", "train": "yes", "wheelchair": "yes", "wikidata": "Q4546494", "wikipedia": "en:103rd Street\u2013Beverly Hills station"}}, {"type": "node", "id": 717468820, "lat": 41.6988629, "lon": -87.6697797, "tags": {"addr:city": "Chicago", "addr:housenumber": "1901", "addr:postcode": "60643", "addr:state": "IL", "addr:street": "West 107th Street", "name": "107th Street (Beverly Hills)", "network": "Metra", "operator": "Metra", "public_transport": "station", "railway": "station", "ref:metra": "107TH-BEV", "train": "yes", "wikidata": "Q4546743"}}, {"type": "node", "id": 718382733, "lat": 41.6741585, "lon": -87.6422103, "tags": {"addr:city": "Chicago", "addr:postcode": "60643", "addr:state": "IL", "addr:street": "South Halsted Street", "name": "West Pullman", "network": "Metra", "operator": "Metra", "public_transport": "station", "railway": "station", "ref:metra": "WPULLMAN", "train": "yes", "wikidata": "Q7986304", "wikipedia": "en:West Pullman station"}}, {"type": "node", "id": 718382734, "lat": 41.6743083, "lon": -87.6313847, "tags": {"name": "Stewart Ridge", "network": "Metra", "public_transport": "stop_position", "railway": "stop", "ref:metra": "STEWARTRID", "train": "yes", "wikidata": "Q7615932"}}, {"type": "node", "id": 718382735, "lat": 41.6744501, "lon": -87.6211402, "tags": {"addr:city": "Chicago", "addr:postcode": "60628", "addr:state": "IL", "addr:street": "South State Street", "name": "State Street", "network": "Metra", "operator": "Metra", "public_transport": "station", "railway": "station", "ref:metra": "STATEST", "train": "yes", "wikidata": "Q7603546", "wikipedia": "en:State Street station (Illinois)"}}, {"type": "node", "id": 718382852, "lat": 41.6741195, "lon": -87.6421299, "tags": {"name": "West Pullman", "network": "Metra", "public_transport": "stop_position", "railway": "stop", "ref:metra": "WPULLMAN", "train": "yes"}}, {"type": "node", "id": 721968259, "lat": 41.6464743, "lon": -87.5439369, "tags": {"addr:city": "Chicago", "addr:housenumber": "13730", "addr:postcode": "60633", "addr:state": "IL", "addr:street": "South Brainard Avenue", "name": "Hegewisch", "network": "NICTD", "operator": "NICTD", "platforms": "2", "public_transport": "station", "railway": "station", "tickets:public_transport": "yes", "train": "yes", "vending_machine": "public_transport_tickets", "wheelchair": "yes", "wikidata": "Q14687536", "wikipedia": "en:Hegewisch station"}}, {"type": "node", "id": 732817101, "lat": 41.9144353, "lon": -87.7459818, "tags": {"addr:city": "Chicago", "addr:housenumber": "1833", "addr:postcode": "60639", "addr:state": "IL", "addr:street": "North Cicero Avenue", "name": "Grand/Cicero", "network": "Metra", "operator": "Metra", "platforms": "2", "public_transport": "station", "railway": "halt", "ref:metra": "GRAND-CIC", "train": "yes", "wikidata": "Q5594204", "wikipedia": "en:Grand/Cicero station"}}, {"type": "node", "id": 734118688, "lat": 41.9176108, "lon": -87.6690589, "tags": {"name": "Clybourn", "network": "Metra", "public_transport": "stop_position", "railway": "stop", "ref:metra": "CLYBOURN", "train": "yes"}}, {"type": "node", "id": 734118701, "lat": 41.9166734, "lon": -87.668054, "tags": {"name": "Clybourn", "network": "Metra", "public_transport": "stop_position", "railway": "stop", "ref:metra": "CLYBOURN", "train": "yes"}}, {"type": "node", "id": 734512771, "lat": 41.9647782, "lon": -87.6579209, "tags": {"addr:city": "Chicago", "addr:housenumber": "1109", "addr:postcode": "60640", "addr:state": "IL", "addr:street": "West Wilson Avenue", "name": "Wilson", "network": "CTA", "operator": "Chicago Transit Authority", "platforms": "1", "public_transport": "station", "railway": "station", "station": "subway", "subway": "yes", "wheelchair": "yes", "wikidata": "Q2838851"}}, {"type": "node", "id": 734512775, "lat": 41.9689268, "lon": -87.6584393, "tags": {"addr:city": "Chicago", "addr:housenumber": "1117", "addr:postcode": "60640", "addr:state": "IL", "addr:street": "West Lawrence Avenue", "construction:railway": "station", "name": "Lawrence", "network": "CTA", "operator": "Chicago Transit Authority", "platforms": "1", "public_transport": "station", "railway": "construction", "station": "subway", "subway": "yes", "wheelchair": "no", "wikidata": "Q2415676", "wikipedia": "en:Lawrence (CTA station)"}}, {"type": "node", "id": 734513119, "lat": 41.9647523, "lon": -87.6578701, "tags": {"name": "Wilson", "network": "CTA", "operator": "Chicago Transit Authority", "operator:wikidata": "Q117309", "public_transport": "stop_position", "railway": "stop", "subway": "yes"}}, {"type": "node", "id": 734563511, "lat": 41.947514, "lon": -87.653577, "tags": {"name": "Addison", "network": "CTA", "operator": "Chicago Transit Authority", "operator:wikidata": "Q117309", "public_transport": "stop_position", "railway": "stop", "subway": "yes"}}, {"type": "node", "id": 734565285, "lat": 41.947512, "lon": -87.653676, "tags": {"name": "Addison", "network": "CTA", "operator": "Chicago Transit Authority", "operator:wikidata": "Q117309", "public_transport": "stop_position", "railway": "stop", "subway": "yes"}}, {"type": "node", "id": 734832856, "lat": 41.9486126, "lon": -87.7402166, "tags": {"addr:city": "Chicago", "addr:housenumber": "3729", "addr:postcode": "60641", "addr:state": "IL", "addr:street": "North Kilbourn Avenue", "name": "Grayland", "network": "Metra", "operator": "Metra", "public_transport": "station", "railway": "station", "ref:metra": "GRAYLAND", "train": "yes", "wheelchair": "no", "wikidata": "Q5598314", "wikipedia": "en:Grayland station"}}, {"type": "node", "id": 736014788, "lat": 41.8759148, "lon": -87.6603717, "tags": {"name": "Racine", "network": "CTA", "operator": "Chicago Transit Authority", "operator:wikidata": "Q117309", "public_transport": "stop_position", "railway": "stop", "subway": "yes"}}, {"type": "node", "id": 736014811, "lat": 41.8756467, "lon": -87.6722913, "tags": {"name": "Illinois Medical District", "network": "CTA", "operator": "Chicago Transit Authority", "operator:wikidata": "Q117309", "public_transport": "stop_position", "railway": "stop", "subway": "yes"}}, {"type": "node", "id": 736035818, "lat": 41.8961978, "lon": -87.6553579, "tags": {"addr:city": "Chicago", "addr:housenumber": "800", "addr:postcode": "60642", "addr:state": "IL", "addr:street": "North Milwaukee Avenue", "name": "Chicago", "network": "CTA", "operator": "Chicago Transit Authority", "platforms": "1", "public_transport": "station", "railway": "station", "station": "subway", "subway": "yes", "wheelchair": "no", "wikidata": "Q2963288", "wikipedia": "en:Chicago station (CTA Blue Line)"}}, {"type": "node", "id": 736035820, "lat": 41.9035623, "lon": -87.6671796, "tags": {"name": "Division", "network": "CTA", "operator": "Chicago Transit Authority", "operator:wikidata": "Q117309", "public_transport": "stop_position", "railway": "stop", "subway": "yes"}}, {"type": "node", "id": 736035840, "lat": 41.9098778, "lon": -87.6776609, "tags": {"name": "Damen", "public_transport": "stop_position", "railway": "stop", "subway": "yes"}}, {"type": "node", "id": 736638456, "lat": 41.8855781, "lon": -87.6516968, "tags": {"name": "Morgan", "network": "CTA", "operator": "Chicago Transit Authority", "operator:wikidata": "Q117309", "public_transport": "stop_position", "railway": "stop", "subway": "yes"}}, {"type": "node", "id": 736638542, "lat": 41.8856995, "lon": -87.6418207, "tags": {"name": "Clinton", "network": "CTA", "operator": "Chicago Transit Authority", "operator:wikidata": "Q117309", "public_transport": "stop_position", "railway": "stop", "subway": "yes"}}, {"type": "node", "id": 736639177, "lat": 41.8856156, "lon": -87.6516963, "tags": {"name": "Morgan", "network": "CTA", "operator": "Chicago Transit Authority", "operator:wikidata": "Q117309", "public_transport": "stop_position", "railway": "stop", "subway": "yes"}}, {"type": "node", "id": 736639292, "lat": 41.8853559, "lon": -87.6664823, "tags": {"name": "Ashland", "network": "CTA", "operator": "Chicago Transit Authority", "operator:wikidata": "Q117309", "public_transport": "stop_position", "railway": "stop", "subway": "yes"}}, {"type": "node", "id": 736686420, "lat": 41.8768434, "lon": -87.6313616, "tags": {"name": "LaSalle/Van Buren", "network": "CTA", "operator": "Chicago Transit Authority", "operator:wikidata": "Q117309", "public_transport": "stop_position", "railway": "stop", "subway": "yes"}}, {"type": "node", "id": 736686433, "lat": 41.8768738, "lon": -87.6288643, "tags": {"name": "Harold Washington Library-State/Van Buren", "network": "CTA", "operator": "Chicago Transit Authority", "operator:wikidata": "Q117309", "public_transport": "stop_position", "railway": "stop", "subway": "yes"}}, {"type": "node", "id": 736686706, "lat": 41.8769082, "lon": -87.6288739, "tags": {"name": "Harold Washington Library-State/Van Buren", "network": "CTA", "operator": "Chicago Transit Authority", "operator:wikidata": "Q117309", "public_transport": "stop_position", "railway": "stop", "subway": "yes"}}, {"type": "node", "id": 736686728, "lat": 41.8768793, "lon": -87.6313624, "tags": {"name": "LaSalle/Van Buren", "network": "CTA", "operator": "Chicago Transit Authority", "operator:wikidata": "Q117309", "public_transport": "stop_position", "railway": "stop", "subway": "yes"}}, {"type": "node", "id": 736864188, "lat": 41.8965402, "lon": -87.6241772, "tags": {"bus": "yes", "local_ref": "1126", "name": "Michigan & Chicago", "network": "CTA", "operator": "Chicago Transit Authority", "public_transport": "stop_position"}}, {"type": "node", "id": 737746092, "lat": 41.871599, "lon": -87.7469459, "tags": {"addr:city": "Chicago", "addr:housenumber": "720", "addr:postcode": "60644", "addr:state": "IL", "addr:street": "South Cicero Avenue", "name": "Cicero", "network": "CTA", "operator": "Chicago Transit Authority", "platforms": "1", "public_transport": "station", "railway": "station", "station": "subway", "subway": "yes", "wheelchair": "no", "wikidata": "Q2972268", "wikipedia": "en:Cicero station (CTA Blue Line)"}}, {"type": "node", "id": 737755552, "lat": 41.8670244, "lon": -87.7643594, "tags": {"bus": "yes", "local_ref": "17224", "name": "Central & Fillmore", "operator": "Chicago Transit Authority", "public_transport": "stop_position"}}, {"type": "node", "id": 738165289, "lat": 41.8469432, "lon": -87.6481637, "tags": {"name": "Halsted", "public_transport": "stop_position", "railway": "stop", "subway": "yes"}}, {"type": "node", "id": 738165401, "lat": 41.8394056, "lon": -87.6653152, "tags": {"name": "Ashland", "public_transport": "stop_position", "railway": "stop", "subway": "yes"}}, {"type": "node", "id": 739078289, "lat": 41.9166766, "lon": -87.7669163, "tags": {"addr:city": "Chicago", "addr:housenumber": "5621", "addr:postcode": "60639", "addr:state": "IL", "addr:street": "West Armitage Avenue", "name": "Hanson Park", "network": "Metra", "operator": "Metra", "platforms": "2", "public_transport": "station", "railway": "halt", "ref:metra": "HANSONPK", "train": "yes", "wikidata": "Q5651209", "wikipedia": "en:Hanson Park station"}}, {"type": "node", "id": 739078290, "lat": 41.9165374, "lon": -87.7864547, "tags": {"addr:city": "Chicago", "addr:housenumber": "2031", "addr:postcode": "60707", "addr:state": "IL", "addr:street": "North Narragansett Avenue", "name": "Galewood", "network": "Metra", "operator": "Metra", "platforms": "2", "public_transport": "station", "railway": "station", "ref:metra": "GALEWOOD", "train": "yes", "wikidata": "Q5518507", "wikipedia": "en:Galewood station"}}, {"type": "node", "id": 739078292, "lat": 41.9192039, "lon": -87.7943324, "tags": {"addr:city": "Chicago", "addr:housenumber": "6801", "addr:postcode": "60707", "addr:state": "IL", "addr:street": "West Shakespeare Avenue", "name": "Mars", "network": "Metra", "operator": "Metra", "platforms": "2", "public_transport": "station", "railway": "halt", "ref:metra": "MARS", "train": "yes", "wikidata": "Q6773089", "wikipedia": "en:Mars station (Illinois)"}}, {"type": "node", "id": 739322024, "lat": 41.917966, "lon": -87.652561, "tags": {"name": "Armitage", "network": "CTA", "operator": "Chicago Transit Authority", "operator:wikidata": "Q117309", "public_transport": "stop_position", "railway": "stop", "subway": "yes"}}, {"type": "node", "id": 739322025, "lat": 41.917963, "lon": -87.652677, "tags": {"name": "Armitage", "network": "CTA", "operator": "Chicago Transit Authority", "operator:wikidata": "Q117309", "public_transport": "stop_position", "railway": "stop", "subway": "yes"}}, {"type": "node", "id": 739322281, "lat": 41.936405, "lon": -87.653318, "tags": {"name": "Wellington", "network": "CTA", "operator": "Chicago Transit Authority", "operator:wikidata": "Q117309", "public_transport": "stop_position", "railway": "stop", "subway": "yes"}}, {"type": "node", "id": 739322583, "lat": 41.936408, "lon": -87.653201, "tags": {"name": "Wellington", "network": "CTA", "operator": "Chicago Transit Authority", "operator:wikidata": "Q117309", "public_transport": "stop_position", "railway": "stop", "subway": "yes"}}, {"type": "node", "id": 740363358, "lat": 41.8859438, "lon": -87.6280259, "tags": {"bus": "yes", "name": "State & Lake (CTA)", "network": "CTA", "operator": "Chicago Transit Authority", "public_transport": "stop_position", "ref": "1423"}}, {"type": "node", "id": 740502139, "lat": 41.7489324, "lon": -87.7035753, "tags": {"name": "Wrightwood", "network": "Metra", "operator": "Metra", "public_transport": "station", "railway": "station", "ref:metra": "WRIGHTWOOD", "train": "yes", "wheelchair": "yes", "wikidata": "Q8038326", "wikipedia": "en:Wrightwood station (Metra)"}}, {"type": "node", "id": 740502145, "lat": 41.7417674, "lon": -87.7125792, "tags": {"name": "Ashburn", "network": "Metra", "operator": "Metra", "operator:wikidata": "Q1814208", "public_transport": "stop_position", "railway": "stop", "ref:metra": "ASHBURN", "train": "yes"}}, {"type": "node", "id": 740502411, "lat": 41.7483196, "lon": -87.7043818, "tags": {"name": "Wrightwood", "network": "Metra", "operator": "Metra", "operator:wikidata": "Q1814208", "public_transport": "stop_position", "railway": "stop", "ref:metra": "WRIGHTWOOD", "train": "yes"}}, {"type": "node", "id": 853530314, "lat": 41.8756443, "lon": -87.6312369, "tags": {"addr:city": "Chicago", "addr:housenumber": "150", "addr:postcode": "60605", "addr:state": "IL", "addr:street": "West Ida B. Wells Drive", "name": "LaSalle", "network": "CTA", "operator": "Chicago Transit Authority", "platforms": "1", "public_transport": "station", "railway": "station", "station": "subway", "subway": "yes", "wheelchair": "no", "wikidata": "Q780607", "wikipedia": "en:LaSalle station (CTA)"}}, {"type": "node", "id": 924678447, "lat": 41.8959778, "lon": -87.6356699, "tags": {"name": "Chicago", "network": "CTA", "operator": "Chicago Transit Authority", "operator:wikidata": "Q117309", "public_transport": "stop_position", "railway": "stop", "subway": "yes"}}, {"type": "node", "id": 992006194, "lat": 41.8685933, "lon": -87.6156365, "tags": {"amenity": "ferry_terminal", "ferry": "yes", "name": "Museum Campus Dock", "network": "Shoreline Water Taxi", "operator": "Shoreline Water Taxi", "public_transport": "station"}}, {"type": "node", "id": 1087230918, "lat": 41.9750829, "lon": -87.8903158, "tags": {"light_rail": "yes", "name": "Terminal 5", "network": "ATS", "operator": "O'Hare Airport Transit System", "public_transport": "stop_position", "railway": "stop"}}, {"type": "node", "id": 1105878903, "lat": 41.878022, "lon": -87.6230084, "tags": {"name": "Van Buren Street", "network": "Metra;NICTD", "operator": "Metra", "operator:wikidata": "Q1814208", "public_transport": "stop_position", "railway": "stop", "ref:metra": "VANBUREN", "train": "yes"}}, {"type": "node", "id": 1105878913, "lat": 41.8780193, "lon": -87.6229077, "tags": {"name": "Van Buren Street", "network": "Metra;NICTD", "operator": "Metra", "operator:wikidata": "Q1814208", "public_transport": "stop_position", "railway": "stop", "ref:metra": "VANBUREN", "train": "yes"}}, {"type": "node", "id": 1105879067, "lat": 41.8678744, "lon": -87.6213904, "tags": {"name": "Museum Campus/11th Street", "network": "Metra;NICTD", "public_transport": "stop_position", "railway": "stop", "ref:metra": "MUSEUM", "train": "yes"}}, {"type": "node", "id": 1105879311, "lat": 41.8678779, "lon": -87.6212921, "tags": {"name": "Museum Campus/11th Street", "network": "Metra;NICTD", "public_transport": "stop_position", "railway": "stop", "ref:metra": "MUSEUM", "train": "yes"}}, {"type": "node", "id": 1105879415, "lat": 41.7918888, "lon": -87.5880164, "tags": {"name": "55th-56th-57th Street", "network": "Metra;NICTD", "public_transport": "stop_position", "railway": "stop", "ref:metra": "55-56-57TH", "train": "yes"}}, {"type": "node", "id": 1105879749, "lat": 41.8021373, "lon": -87.587235, "tags": {"name": "51st-53rd Street (Hyde Park)", "network": "Metra", "public_transport": "stop_position", "railway": "stop", "ref:metra": "51ST-53RD", "train": "yes"}}, {"type": "node", "id": 1105879780, "lat": 41.8764573, "lon": -87.623013, "tags": {"name": "Van Buren Street", "network": "Metra;NICTD", "operator": "Metra", "operator:wikidata": "Q1814208", "public_transport": "stop_position", "railway": "stop", "ref:metra": "VANBUREN", "train": "yes"}}, {"type": "node", "id": 1105879819, "lat": 41.8006625, "lon": -87.5871738, "tags": {"name": "51st-53rd Street (Hyde Park)", "network": "Metra", "public_transport": "stop_position", "railway": "stop", "ref:metra": "51ST-53RD", "train": "yes"}}, {"type": "node", "id": 1130096180, "lat": 41.9221873, "lon": -87.697195, "tags": {"addr:city": "Chicago", "addr:housenumber": "2211", "addr:postcode": "60647", "addr:state": "IL", "addr:street": "North California Avenue", "name": "California", "network": "CTA", "operator": "Chicago Transit Authority", "platforms": "2", "public_transport": "station", "railway": "station", "station": "subway", "subway": "yes", "wheelchair": "no", "wikidata": "Q2933963", "wikipedia": "en:California station (CTA Blue Line)"}}, {"type": "node", "id": 1206870599, "lat": 41.9218485, "lon": -87.8016081, "tags": {"addr:city": "Chicago", "addr:housenumber": "7007", "addr:postcode": "60707", "addr:state": "IL", "addr:street": "West Medill Avenue", "name": "Mont Clare", "network": "Metra", "operator": "Metra", "platforms": "2", "public_transport": "station", "railway": "station", "ref:metra": "MONTCLARE", "train": "yes", "wikidata": "Q6903057", "wikipedia": "en:Mont Clare station (Illinois)"}}, {"type": "node", "id": 1210043924, "lat": 41.7866976, "lon": -87.7380407, "tags": {"name": "Midway", "network": "CTA", "operator": "Chicago Transit Authority", "operator:wikidata": "Q117309", "public_transport": "stop_position", "railway": "stop", "subway": "yes"}}, {"type": "node", "id": 1236309640, "lat": 41.831233, "lon": -87.6294114, "tags": {"addr:city": "Chicago", "addr:housenumber": "106", "addr:postcode": "60616", "addr:state": "IL", "addr:street": "West 35th Street", "name": "35th Street", "network": "Metra", "operator": "Metra", "platforms": "2", "public_transport": "station", "railway": "halt", "ref:metra": "35TH", "train": "yes", "wheelchair": "yes", "wikidata": "Q3264096", "wikipedia": "en:35th Street station"}}, {"type": "node", "id": 1280853416, "lat": 41.8755044, "lon": -87.6877127, "tags": {"name": "Western", "network": "CTA", "operator": "Chicago Transit Authority", "operator:wikidata": "Q117309", "public_transport": "stop_position", "railway": "stop", "subway": "yes"}}, {"type": "node", "id": 1280853432, "lat": 41.8741959, "lon": -87.7075195, "tags": {"name": "Kedzie-Homan", "network": "CTA", "operator": "Chicago Transit Authority", "operator:wikidata": "Q117309", "public_transport": "stop_position", "railway": "stop", "subway": "yes"}}, {"type": "node", "id": 1280923905, "lat": 41.8540914, "lon": -87.7057384, "tags": {"name": "Kedzie", "network": "CTA", "operator": "Chicago Transit Authority", "operator:wikidata": "Q117309", "public_transport": "stop_position", "railway": "stop", "subway": "yes"}}, {"type": "node", "id": 1280939559, "lat": 41.8044027, "lon": -87.7043672, "tags": {"name": "Kedzie", "network": "CTA", "public_transport": "stop_position", "railway": "stop", "subway": "yes"}}, {"type": "node", "id": 1280939573, "lat": 41.7999163, "lon": -87.7245602, "tags": {"name": "Pulaski", "network": "CTA", "public_transport": "stop_position", "railway": "stop", "subway": "yes"}}, {"type": "node", "id": 1280962822, "lat": 41.9680907, "lon": -87.7131309, "tags": {"name": "Kimball", "network": "CTA", "operator": "Chicago Transit Authority", "operator:wikidata": "Q117309", "public_transport": "stop_position", "railway": "stop", "subway": "yes"}}, {"type": "node", "id": 1282296292, "lat": 41.9221445, "lon": -87.6970834, "tags": {"name": "California", "network": "CTA", "operator": "Chicago Transit Authority", "operator:wikidata": "Q117309", "public_transport": "stop_position", "railway": "stop", "subway": "yes"}}, {"type": "node", "id": 1282296301, "lat": 41.9618859, "lon": -87.7441277, "tags": {"name": "Montrose", "network": "CTA", "operator": "Chicago Transit Authority", "operator:wikidata": "Q117309", "public_transport": "stop_position", "railway": "stop", "subway": "yes"}}, {"type": "node", "id": 1282296369, "lat": 41.9220155, "lon": -87.6969301, "tags": {"name": "California", "network": "CTA", "operator": "Chicago Transit Authority", "operator:wikidata": "Q117309", "public_transport": "stop_position", "railway": "stop", "subway": "yes"}}, {"type": "node", "id": 1283483516, "lat": 41.809137, "lon": -87.6188377, "tags": {"name": "47th", "network": "CTA", "operator": "Chicago Transit Authority", "operator:wikidata": "Q117309", "public_transport": "stop_position", "railway": "stop", "subway": "yes"}}, {"type": "node", "id": 1283483584, "lat": 41.8024089, "lon": -87.6185167, "tags": {"name": "51st", "network": "CTA", "operator": "Chicago Transit Authority", "operator:wikidata": "Q117309", "public_transport": "stop_position", "railway": "stop", "subway": "yes"}}, {"type": "node", "id": 1283483703, "lat": 41.8324973, "lon": -87.6258428, "tags": {"name": "35th-Bronzeville-IIT", "network": "CTA", "operator": "Chicago Transit Authority", "operator:wikidata": "Q117309", "public_transport": "stop_position", "railway": "stop", "subway": "yes", "wheelchair": "yes"}}, {"type": "node", "id": 1291113573, "lat": 41.9616755, "lon": -87.6751167, "tags": {"name": "Montrose", "network": "CTA", "operator": "Chicago Transit Authority", "operator:wikidata": "Q117309", "public_transport": "stop_position", "railway": "stop", "subway": "yes"}}, {"type": "node", "id": 1291113642, "lat": 41.9543516, "lon": -87.6749332, "tags": {"name": "Irving Park", "network": "CTA", "operator": "Chicago Transit Authority", "operator:wikidata": "Q117309", "public_transport": "stop_position", "railway": "stop", "subway": "yes"}}, {"type": "node", "id": 1291113644, "lat": 41.9438338, "lon": -87.663589, "tags": {"name": "Southport", "network": "CTA", "operator": "Chicago Transit Authority", "operator:wikidata": "Q117309", "public_transport": "stop_position", "railway": "stop", "subway": "yes", "wheelchair": "yes"}}, {"type": "node", "id": 1291153198, "lat": 41.7803778, "lon": -87.6059718, "tags": {"name": "Cottage Grove", "network": "CTA", "operator": "Chicago Transit Authority", "operator:wikidata": "Q117309", "public_transport": "stop_position", "railway": "stop", "subway": "yes"}}, {"type": "node", "id": 1291153392, "lat": 41.7790576, "lon": -87.6437762, "tags": {"name": "Halsted", "network": "CTA", "operator": "Chicago Transit Authority", "operator:wikidata": "Q117309", "public_transport": "stop_position", "railway": "stop", "subway": "yes"}}, {"type": "node", "id": 1308208332, "lat": 41.8729203, "lon": -87.6764702, "tags": {"bus": "yes", "local_ref": "8873", "name": "Damen & Ogden", "network": "CTA", "operator": "Chicago Transit Authority", "public_transport": "stop_position"}}, {"type": "node", "id": 1325582553, "lat": 41.8442618, "lon": -87.6134032, "tags": {"addr:city": "Chicago", "addr:postcode": "60616", "addr:state": "IL", "addr:street": "East 27th Street", "name": "27th Street", "network": "Metra", "operator": "Metra", "public_transport": "station", "railway": "halt", "ref:metra": "27TH-UP", "train": "yes", "wikidata": "Q4632653", "wikipedia": "en:27th Street station"}}, {"type": "node", "id": 1325582557, "lat": 41.8515481, "lon": -87.6164334, "tags": {"alt_name": "23rd Street", "elevator": "yes", "name": "McCormick Place", "network": "Metra;NICTD", "operator": "Metra;NICTD", "public_transport": "station", "railway": "station", "ref:metra": "MCCORMICK", "tickets:public_transport": "yes", "train": "yes", "vending_machine": "tickets", "wheelchair": "yes", "wikidata": "Q6800577", "wikipedia": "en:McCormick Place station"}}, {"type": "node", "id": 1325590043, "lat": 41.8095112, "lon": -87.5911642, "tags": {"addr:city": "Chicago", "addr:postcode": "60615", "addr:state": "IL", "addr:street": "East 47th Street", "name": "47th Street (Kenwood)", "network": "Metra", "operator": "Metra", "public_transport": "station", "railway": "halt", "ref:metra": "47TH-UP", "train": "yes", "wheelchair": "no", "wikidata": "Q6392502", "wikipedia": "en:47th Street (Kenwood) station"}}, {"type": "node", "id": 1325593964, "lat": 41.8014328, "lon": -87.5871893, "tags": {"addr:city": "Chicago", "addr:postcode": "60615", "addr:state": "IL", "alt_name": "53rd Street", "name": "51st-53rd Street (Hyde Park)", "network": "Metra", "operator": "Metra", "platforms": "2", "public_transport": "station", "railway": "station", "ref:metra": "51ST-53RD", "tickets:public_transport": "yes", "train": "yes", "vending_machine": "public_transport_tickets", "wheelchair": "yes", "wikidata": "Q5953615", "wikipedia": "en:51st\u201353rd Street (Hyde Park) station"}}, {"type": "node", "id": 1325595599, "lat": 41.7927001, "lon": -87.5877057, "tags": {"addr:city": "Chicago", "addr:postcode": "60637", "addr:state": "IL", "addr:street": "East 57th Street", "alt_name": "57th Street", "name": "55th-56th-57th Street", "network": "Metra;NICTD", "operator": "Metra", "platforms": "2", "public_transport": "station", "railway": "station", "ref:metra": "55-56-57TH", "tickets:public_transport": "yes", "train": "yes", "vending_machine": "public_transport_tickets", "wheelchair": "yes", "wikidata": "Q4640676", "wikipedia": "en:55th\u201356th\u201357th Street station"}}, {"type": "node", "id": 1325597285, "lat": 41.7873718, "lon": -87.5889215, "tags": {"addr:city": "Chicago", "addr:postcode": "60637", "addr:state": "IL", "addr:street": "East 59th Street", "name": "59th Street (University of Chicago)", "network": "Metra", "operator": "Metra", "platforms": "2", "public_transport": "station", "railway": "station", "ref:metra": "59TH-UP", "train": "yes", "wheelchair": "no", "wikidata": "Q4641026", "wikipedia": "en:59th Street/University of Chicago station"}}, {"type": "node", "id": 1325598816, "lat": 41.7790971, "lon": -87.5908366, "tags": {"name": "63rd Street", "network": "Metra;NICTD", "public_transport": "stop_position", "railway": "stop", "ref:metra": "63RD-UP", "train": "yes"}}, {"type": "node", "id": 1325600692, "lat": 41.7591889, "lon": -87.5953377, "tags": {"addr:city": "Chicago", "addr:postcode": "60619", "addr:state": "IL", "addr:street": "East 75th Street", "name": "75th Street (Grand Crossing)", "network": "Metra", "operator": "Metra", "public_transport": "station", "railway": "halt", "ref:metra": "75TH-UP", "train": "yes", "wikidata": "Q4643466", "wikipedia": "en:75th Street (Grand Crossing) station"}}, {"type": "node", "id": 1325603473, "lat": 41.7508066, "lon": -87.5972177, "tags": {"addr:city": "Chicago", "addr:postcode": "60619", "addr:state": "IL", "addr:street": "East 79th Street", "name": "79th Street (Chatham)", "network": "Metra", "operator": "Metra", "public_transport": "station", "railway": "halt", "ref:metra": "79TH-UP", "train": "yes", "wikidata": "Q4643759", "wikipedia": "en:79th Street (Chatham) station"}}, {"type": "node", "id": 1325604919, "lat": 41.7444903, "lon": -87.5986812, "tags": {"addr:city": "Chicago", "addr:postcode": "60619", "addr:state": "IL", "addr:street": "East 83rd Street", "name": "83rd Street (Avalon Park)", "network": "Metra", "operator": "Metra", "public_transport": "station", "railway": "halt", "ref:metra": "83RD-UP", "train": "yes", "wikidata": "Q4644740", "wikipedia": "en:83rd Street (Avalon Park) station"}}, {"type": "node", "id": 1325605366, "lat": 41.7373351, "lon": -87.6002968, "tags": {"addr:city": "Chicago", "addr:postcode": "60619", "addr:state": "IL", "addr:street": "East 87th Street", "name": "87th Street (Woodruff)", "network": "Metra", "operator": "Metra", "public_transport": "station", "railway": "halt", "ref:metra": "87TH-UP", "train": "yes", "wikidata": "Q4645014", "wikipedia": "en:87th Street (Woodruff) station"}}, {"type": "node", "id": 1325607786, "lat": 41.7298903, "lon": -87.6020197, "tags": {"addr:city": "Chicago", "addr:postcode": "60619", "addr:state": "IL", "addr:street": "East 91st Street", "name": "91st Street (Chesterfield)", "network": "Metra", "operator": "Metra", "public_transport": "station", "railway": "halt", "ref:metra": "91ST-UP", "train": "yes", "wikidata": "Q4645765", "wikipedia": "en:91st Street (Chesterfield) station"}}, {"type": "node", "id": 1325613388, "lat": 41.7215091, "lon": -87.6039299, "tags": {"addr:city": "Chicago", "addr:postcode": "60619", "addr:state": "IL", "addr:street": "East 95th Street", "name": "95th Street (Chicago State University)", "network": "Metra", "operator": "Metra", "public_transport": "station", "railway": "halt", "ref:metra": "95TH-UP", "train": "yes", "wheelchair": "no", "wikidata": "Q4646039", "wikipedia": "en:95th Street/Chicago State University station"}}, {"type": "node", "id": 1325626144, "lat": 41.7068051, "lon": -87.6072928, "tags": {"name": "103rd Street (Rosemoor)", "network": "Metra", "operator": "Metra", "public_transport": "station", "railway": "halt", "ref:metra": "103RD-UP", "train": "yes", "wikidata": "Q4546493"}}, {"type": "node", "id": 1325627569, "lat": 41.6996707, "lon": -87.6089304, "tags": {"name": "107th Street", "network": "Metra", "operator": "Metra", "public_transport": "station", "railway": "halt", "ref:metra": "107TH-UP", "train": "yes", "wikidata": "Q4546742"}}, {"type": "node", "id": 1325631234, "lat": 41.6929315, "lon": -87.6104668, "tags": {"name": "111th Street (Pullman)", "network": "Metra", "operator": "Metra", "public_transport": "station", "railway": "station", "ref:metra": "111TH-UP", "train": "yes", "wikidata": "Q7259476"}}, {"type": "node", "id": 1325640307, "lat": 41.6861072, "lon": -87.6120907, "tags": {"addr:city": "Chicago", "addr:postcode": "60628", "addr:state": "IL", "addr:street": "East 115th Street", "name": "Kensington (115th Street)", "network": "Metra", "operator": "Metra", "public_transport": "station", "railway": "station", "ref:metra": "KENSINGTN", "tickets:public_transport": "yes", "train": "yes", "vending_machine": "public_transport_tickets", "wheelchair": "yes", "wikidata": "Q6391421", "wikipedia": "en:Kensington/115th Street station"}}, {"type": "node", "id": 1325712002, "lat": 41.6859224, "lon": -87.6121919, "tags": {"name": "Kensington (115th Street)", "network": "Metra", "public_transport": "stop_position", "railway": "stop", "ref:metra": "KENSINGTN", "train": "yes"}}, {"type": "node", "id": 1344111274, "lat": 41.9789189, "lon": -87.7558778, "tags": {"name": "Forest Glen", "network": "Metra", "public_transport": "stop_position", "railway": "stop", "ref:metra": "FORESTGLEN", "train": "yes"}}, {"type": "node", "id": 1357049979, "lat": 41.7663161, "lon": -87.564889, "tags": {"bus": "yes", "local_ref": "7031", "name": "South Shore Drive & Coles", "network": "CTA", "operator": "Chicago Transit Authority", "public_transport": "stop_position"}}, {"type": "node", "id": 1387760742, "lat": 41.9662982, "lon": -87.6885178, "tags": {"name": "Western", "network": "CTA", "operator": "Chicago Transit Authority", "operator:wikidata": "Q117309", "public_transport": "stop_position", "railway": "stop", "subway": "yes", "wheelchair": "yes"}}, {"type": "node", "id": 1407580441, "lat": 41.8900073, "lon": -87.6242138, "tags": {"bus": "yes", "level": "0", "name": "Michigan & Hubbard (Wrigley Building)", "network": "CTA", "operator": "Chicago Transit Authority", "public_transport": "stop_position", "ref": "1103"}}, {"type": "node", "id": 1432726747, "lat": 41.9661285, "lon": -87.7095589, "tags": {"name": "Kedzie", "network": "CTA", "operator": "Chicago Transit Authority", "operator:wikidata": "Q117309", "public_transport": "stop_position", "railway": "stop", "subway": "yes"}}, {"type": "node", "id": 1432726753, "lat": 41.9660603, "lon": -87.7095588, "tags": {"name": "Kedzie", "network": "CTA", "operator": "Chicago Transit Authority", "operator:wikidata": "Q117309", "public_transport": "stop_position", "railway": "stop", "subway": "yes"}}, {"type": "node", "id": 1432732157, "lat": 41.9661187, "lon": -87.7022132, "tags": {"name": "Francisco", "network": "CTA", "operator": "Chicago Transit Authority", "operator:wikidata": "Q117309", "public_transport": "stop_position", "railway": "stop", "subway": "yes"}}, {"type": "node", "id": 1432732160, "lat": 41.9661881, "lon": -87.7022105, "tags": {"name": "Francisco", "network": "CTA", "operator": "Chicago Transit Authority", "operator:wikidata": "Q117309", "public_transport": "stop_position", "railway": "stop", "subway": "yes"}}, {"type": "node", "id": 1432737872, "lat": 41.9661798, "lon": -87.6948948, "tags": {"name": "Rockwell", "network": "CTA", "operator": "Chicago Transit Authority", "operator:wikidata": "Q117309", "public_transport": "stop_position", "railway": "stop", "subway": "yes"}}, {"type": "node", "id": 1432737882, "lat": 41.9662459, "lon": -87.6948948, "tags": {"name": "Rockwell", "network": "CTA", "operator": "Chicago Transit Authority", "operator:wikidata": "Q117309", "public_transport": "stop_position", "railway": "stop", "subway": "yes"}}, {"type": "node", "id": 1435427479, "lat": 41.9470501, "lon": -87.6747262, "tags": {"name": "Addison", "network": "CTA", "operator": "Chicago Transit Authority", "operator:wikidata": "Q117309", "public_transport": "stop_position", "railway": "stop", "subway": "yes"}}, {"type": "node", "id": 1435427483, "lat": 41.9664153, "lon": -87.6788433, "tags": {"name": "Damen", "network": "CTA", "operator": "Chicago Transit Authority", "operator:wikidata": "Q117309", "public_transport": "stop_position", "railway": "stop", "subway": "yes", "wheelchair": "yes"}}, {"type": "node", "id": 1435427486, "lat": 41.9437163, "lon": -87.6708193, "tags": {"name": "Paulina", "network": "CTA", "operator": "Chicago Transit Authority", "operator:wikidata": "Q117309", "public_transport": "stop_position", "railway": "stop", "subway": "yes", "wheelchair": "yes"}}, {"type": "node", "id": 1474511211, "lat": 41.872808, "lon": -87.7648513, "tags": {"bus": "yes", "name": "Harrison/Central Terminal", "network": "CTA", "operator": "Chicago Transit Authority", "public_transport": "stop_position"}}, {"type": "node", "id": 1722519084, "lat": 41.8780034, "lon": -87.6276246, "tags": {"name": "Jackson", "network": "CTA", "operator": "Chicago Transit Authority", "operator:wikidata": "Q117309", "public_transport": "stop_position", "railway": "stop", "subway": "yes"}}, {"type": "node", "id": 1722519085, "lat": 41.8807233, "lon": -87.6277024, "tags": {"name": "Monroe", "network": "CTA", "operator": "Chicago Transit Authority", "operator:wikidata": "Q117309", "public_transport": "stop_position", "railway": "stop", "subway": "yes"}}, {"type": "node", "id": 1722519093, "lat": 41.8916803, "lon": -87.6280028, "tags": {"name": "Grand", "network": "CTA", "operator": "Chicago Transit Authority", "operator:wikidata": "Q117309", "public_transport": "stop_position", "railway": "stop", "subway": "yes"}}, {"type": "node", "id": 1722519113, "lat": 41.9039242, "lon": -87.6315435, "tags": {"name": "Clark/Division", "network": "CTA", "operator": "Chicago Transit Authority", "operator:wikidata": "Q117309", "public_transport": "stop_position", "railway": "stop", "subway": "yes"}}, {"type": "node", "id": 1762400891, "lat": 41.8855988, "lon": -87.6514744, "tags": {"addr:city": "Chicago", "addr:country": "US", "addr:housenumber": "958", "addr:postcode": "60607", "addr:state": "IL", "addr:street": "West Lake Street", "name": "Morgan", "network": "CTA", "operator": "Chicago Transit Authority", "platforms": "2", "public_transport": "station", "railway": "station", "station": "subway", "subway": "yes", "wheelchair": "yes", "wikidata": "Q3323961", "wikipedia": "en:Morgan station"}}, {"type": "node", "id": 1894018275, "lat": 41.8845237, "lon": -87.6278918, "tags": {"addr:city": "Chicago", "addr:housenumber": "188", "addr:postcode": "60601", "addr:state": "IL", "addr:street": "North State Street", "alt_name": "Lake/Randolph", "name": "Lake", "network": "CTA", "old_name": "Lake/Washington", "operator": "Chicago Transit Authority", "platforms": "1", "public_transport": "station", "railway": "station", "source": "Chicago Transit Authority", "station": "subway", "subway": "yes", "wheelchair": "yes", "wikidata": "Q2656448", "wikipedia": "en:Lake station (CTA)"}},